{
"type": "FeatureCollection",
"crs": { "type": "name", "properties": { "name": "urn:ogc:def:crs:OGC:1.3:CRS84" } },
"features": [
{ "type": "Feature", "properties": { "id": "20069", "ciudad": "Donostia\/San Sebastián", "provincia": "Gipuzkoa", "c_autonoma": "País Vasco", "open_data": "<a href=\"https:\/\/www.donostia.eus\/info\/udalinfo\/servicios_opendata.nsf\/vowebContenidosId\/NT000008FE?OpenDocument&idioma=cas&id=D429174410546&doc=D\" target=\"_blank\">Datos Abiertos [Ayuntamiento de Donostia\/San Sebastián | Donostiako Udala]<\/a>", "otros_od": "", "datourbano": "<a href=\"https:\/\/datourbano.github.io\/donostia_san_sebastian\" target=\"_blank\">Dato Urbano - Donostia\/San Sebastián<\/a>", "Notas": "Datos georreferenciados: SI" }, "geometry": { "type": "Point", "coordinates": [ -1.985729, 43.321513 ] } },
{ "type": "Feature", "properties": { "id": "43148", "ciudad": "Tarragona", "provincia": "Tarragona", "c_autonoma": "Cataluña", "open_data": "<a href=\"http:\/\/opendata.tarragona.cat\/tarragona\/es\/\" target=\"_blank\">Dades Obertes [Ayuntamiento de Tarragona]<\/a>", "otros_od": "", "datourbano": "", "Notas": "Actualmente no se puede acceder a este sitio web" }, "geometry": { "type": "Point", "coordinates": [ 1.2542926, 41.1173857 ] } },
{ "type": "Feature", "properties": { "id": "17079", "ciudad": "Girona", "provincia": "Girona", "c_autonoma": "Cataluña", "open_data": "<a href=\"http:\/\/www.girona.cat\/opendata\/\" target=\"_blank\">Girona Open Data [Ajuntament de Girona]<\/a>", "otros_od": "<a href=\"http:\/\/www.girona.cat\/sgdap\/cat\/dades_obertes_catalegs.php\" target=\"_blank\">Servei de Gestió Documental - Open Data [Ajuntament de Girona]<\/a>", "datourbano": "", "Notas": "Datos georreferenciados: SI" }, "geometry": { "type": "Point", "coordinates": [ 2.8247817, 41.9830815 ] } },
{ "type": "Feature", "properties": { "id": "08019", "ciudad": "Barcelona", "provincia": "Barcelona", "c_autonoma": "Cataluña", "open_data": "<a href=\"http:\/\/opendata-ajuntament.barcelona.cat\/\" target=\"_blank\">Open Data BCN [Ajuntament de Barcelona]<\/a>", "otros_od": "<a href=\"https:\/\/www.tmb.cat\/ca\/sobre-tmb\/eines-per-a-desenvolupadors\" target=\"_blank\">Eines per a desenvolupadors - Transports Metropolitans de Barcelona TMB<\/a>", "datourbano": "<a href=\"https:\/\/datourbano.github.io\/barcelona\" target=\"_blank\">Dato Urbano - Barcelona<\/a>", "Notas": "Datos georreferenciados: SÍ" }, "geometry": { "type": "Point", "coordinates": [ 2.1771881, 41.3824939 ] } },
{ "type": "Feature", "properties": { "id": "25120", "ciudad": "Lleida", "provincia": "Lleida", "c_autonoma": "Cataluña", "open_data": "<a href=\"http:\/\/www.paeria.cat\/opendata\/ca\/opendata.asp\" target=\"_blank\">Dades Obertes de Lleida [Ajuntament de Lleida]<\/a>", "otros_od": "", "datourbano": "", "Notas": "Datos georreferenciados: SI" }, "geometry": { "type": "Point", "coordinates": [ 0.6267262, 41.6147056 ] } },
{ "type": "Feature", "properties": { "id": "50297", "ciudad": "Zaragoza", "provincia": "Zaragoza", "c_autonoma": "Aragón", "open_data": "<a href=\"http:\/\/www.zaragoza.es\/ciudad\/risp\/\" target=\"_blank\">Datos Abiertos [Ayuntamiento de Zaragoza]<\/a>", "otros_od": "", "datourbano": "", "Notas": "Datos georreferenciados: SI" }, "geometry": { "type": "Point", "coordinates": [ -0.8774819, 41.6560094 ] } },
{ "type": "Feature", "properties": { "id": "16078", "ciudad": "Cuenca", "provincia": "Cuenca", "c_autonoma": "Castilla-La Mancha", "open_data": "<a href=\"http:\/\/gobiernoabierto.cuenca.es\/default.aspx\" target=\"_blank\">Gobierno Abierto [Ayuntamiento de Cuenca]<\/a>", "otros_od": "", "datourbano": "", "Notas": "Datos georreferenciados: SI" }, "geometry": { "type": "Point", "coordinates": [ -2.1301846, 40.0779031 ] } },
{ "type": "Feature", "properties": { "id": "02003", "ciudad": "Albacete", "provincia": "Albacete", "c_autonoma": "Castilla-La Mancha", "open_data": "<a href=\"http:\/\/www.albacete.es\/es\/webs-municipales\/datos-abiertos\" target=\"_blank\">Datos abiertos [Ayuntamiento de Albacete]<\/a>", "otros_od": "", "datourbano": "", "Notas": "Datos georreferenciados: SI" }, "geometry": { "type": "Point", "coordinates": [ -1.8558006, 38.9961852 ] } },
{ "type": "Feature", "properties": { "id": "46250", "ciudad": "Valencia", "provincia": "Valencia", "c_autonoma": "Comunitat Valenciana", "open_data": "<a href=\"http:\/\/gobiernoabierto.valencia.es\/va\/\" target=\"_blank\">Portal de Transparència i Dades Obertes [Ajuntament de València]<\/a>", "otros_od": "", "datourbano": "", "Notas": "Datos georreferenciados: SI" }, "geometry": { "type": "Point", "coordinates": [ -0.3770022, 39.4698059 ] } },
{ "type": "Feature", "properties": { "id": "29067", "ciudad": "Málaga", "provincia": "Málaga", "c_autonoma": "Andalucía", "open_data": "<a href=\"http:\/\/datosabiertos.malaga.eu\/\" target=\"_blank\">Portal de Datos Abiertos [Ayuntamiento de Málaga]<\/a>", "otros_od": "", "datourbano": "", "Notas": "Datos georreferenciados: SI" }, "geometry": { "type": "Point", "coordinates": [ -4.4149522, 36.7201848 ] } },
{ "type": "Feature", "properties": { "id": "41091", "ciudad": "Sevilla", "provincia": "Sevilla", "c_autonoma": "Andalucía", "open_data": "<a href=\"http:\/\/datosabiertos.sevilla.org\/\" target=\"_blank\">Portal de Datos Abiertos [Ayuntamiento de Sevilla]<\/a>", "otros_od": "<a href=\"http:\/\/sig.urbanismosevilla.org\/sevilla.art\/datosabiertos\/\" target=\"_blank\">Datos Abiertos Espaciales- Ayuntamiento de Sevilla<\/a>", "datourbano": "<a href=\"https:\/\/datourbano.github.io\/sevilla\" target=\"_blank\">Dato Urbano - Sevilla<\/a>", "Notas": "Datos georreferenciados: SI" }, "geometry": { "type": "Point", "coordinates": [ -5.9946094, 37.3886274 ] } },
{ "type": "Feature", "properties": { "id": "10037", "ciudad": "Cáceres", "provincia": "Cáceres", "c_autonoma": "Extremadura", "open_data": "<a href=\"http:\/\/opendata.caceres.es\/\" target=\"_blank\">Opendata Cáceres [Ayuntamiento de Cáceres]<\/a>", "otros_od": "", "datourbano": "", "Notas": "Datos georreferenciados: SI" }, "geometry": { "type": "Point", "coordinates": [ -6.3718614, 39.4745144 ] } },
{ "type": "Feature", "properties": { "id": "28079", "ciudad": "Madrid", "provincia": "Madrid", "c_autonoma": "Comunidad de Madrid", "open_data": "<a href=\"http:\/\/datos.madrid.es\/portal\/site\/egob\/\" target=\"_blank\">Portal de Datos Abiertos [Ayuntamiento de Madrid]<\/a>", "otros_od": "<a href=\"http:\/\/opendata.emtmadrid.es\/Home\" target=\"_blank\">Open Data Empresa Municipal de Transportes EMT<\/a>", "datourbano": "<a href=\"https:\/\/datourbano.github.io\/madrid\" target=\"_blank\">Dato Urbano - Madrid<\/a>", "Notas": "Datos georreferenciados: SI" }, "geometry": { "type": "Point", "coordinates": [ -3.6921526, 40.418972 ] } },
{ "type": "Feature", "properties": { "id": "47186", "ciudad": "Valladolid", "provincia": "Valladolid", "c_autonoma": "Castilla y León", "open_data": "<a href=\"http:\/\/www.valladolid.es\/es\/temas\/hacemos\/open-data-datos-abiertos\" target=\"_blank\">Open Data - Datos Abiertos [Ayuntamiento de Valladolid]<\/a>", "otros_od": "", "datourbano": "", "Notas": "Datos georreferenciados: SI" }, "geometry": { "type": "Point", "coordinates": [ -4.7286476, 41.6523511 ] } },
{ "type": "Feature", "properties": { "id": "15030", "ciudad": "A Coruña", "provincia": "A Coruña", "c_autonoma": "Galicia", "open_data": "<a href=\"https:\/\/smart.coruna.es\/OpenData\/COR\/index.html\" target=\"_blank\">Coruña Smart City Open Data [Ayuntamiento de A Coruña | Concello da Coruña]<\/a>", "otros_od": "", "datourbano": "", "Notas": "Funcionamiento irregular" }, "geometry": { "type": "Point", "coordinates": [ -8.3958459, 43.3713281 ] } },
{ "type": "Feature", "properties": { "id": "28123", "ciudad": "Rivas-Vaciamadrid", "provincia": "Madrid", "c_autonoma": "Comunidad de Madrid", "open_data": "<a href=\"http:\/\/datosabiertos.rivasciudad.es\/\" target=\"_blank\">Portal de Datos Abiertos [Ayuntamiento de Rivas-Vaciamadrid]<\/a>", "otros_od": "", "datourbano": "", "Notas": "Datos georreferenciados: SI" }, "geometry": { "type": "Point", "coordinates": [ -3.5479801, 40.3549912 ] } },
{ "type": "Feature", "properties": { "id": "39075", "ciudad": "Santander", "provincia": "Cantabria", "c_autonoma": "Cantabria", "open_data": "<a href=\"http:\/\/datos.santander.es\/\" target=\"_blank\">Portal de Datos Abiertos [Ayuntamiento de Santander]<\/a>", "otros_od": "", "datourbano": "", "Notas": "Datos georreferenciados: SI" }, "geometry": { "type": "Point", "coordinates": [ -3.8099753, 43.4621785 ] } },
{ "type": "Feature", "properties": { "id": "48020", "ciudad": "Bilbao", "provincia": "Bizkaia", "c_autonoma": "País Vasco", "open_data": "<a href=\"https:\/\/www.bilbao.eus\/opendata\/es\/inicio\" target=\"_blank\">Portal de Datos Abiertos [Ayuntamiento de Bilbao]<\/a>", "otros_od": "", "datourbano": "", "Notas": "Datos georreferenciados: SI" }, "geometry": { "type": "Point", "coordinates": [ -2.9235053, 43.2641195 ] } },
{ "type": "Feature", "properties": { "id": "01059", "ciudad": "Vitoria-Gasteiz", "provincia": "Araba-Álava", "c_autonoma": "País Vasco", "open_data": "<a href=\"http:\/\/www.vitoria-gasteiz.org\/j34-01w\/catalogo\/portada?idioma=es\" target=\"_blank\">Open data Vitoria-Gasteiz [Ayuntamiento de Vitoria-Gasteiz]<\/a>", "otros_od": "", "datourbano": "", "Notas": "Datos georreferenciados: SI" }, "geometry": { "type": "Point", "coordinates": [ -2.6723708, 42.8467842 ] } },
{ "type": "Feature", "properties": { "id": "31201", "ciudad": "Pamplona\/Iruña", "provincia": "Navarra", "c_autonoma": "Comunidad Foral de Navarra", "open_data": "<a href=\"http:\/\/www.pamplona.es\/verpagina.asp?idpag=1519\" target=\"_blank\">Portal de Open Data  [Ayuntamiento de Pamplona | Iruñeko Udala]<\/a>", "otros_od": "", "datourbano": "", "Notas": "Datos georreferenciados: SI" }, "geometry": { "type": "Point", "coordinates": [ -1.6441828, 42.8184374 ] } },
{ "type": "Feature", "properties": { "id": "38038", "ciudad": "Santa Cruz de Tenerife", "provincia": "Santa Cruz de Tenerife", "c_autonoma": "Canarias", "open_data": "<a href=\"http:\/\/www.santacruzdetenerife.es\/opendata\/\" target=\"_blank\">Portal de Datos Abiertos [Ayuntamiento de Santa Cruz de Tenerife]<\/a>", "otros_od": "", "datourbano": "", "Notas": "Datos georreferenciados: SI" }, "geometry": { "type": "Point", "coordinates": [ -16.254669, 28.4698306 ] } },
{ "type": "Feature", "properties": { "id": "35016", "ciudad": "Las Palmas de Gran Canaria", "provincia": "Las Palmas", "c_autonoma": "Canarias", "open_data": "<a href=\"http:\/\/datosabiertos.laspalmasgc.es\/\" target=\"_blank\">Portal Open Data [Ayuntamiento de Las Palmas de Gran Canaria]<\/a>", "otros_od": "", "datourbano": "", "Notas": "Datos georreferenciados: SI" }, "geometry": { "type": "Point", "coordinates": [ -15.4285392, 28.1250315 ] } },
{ "type": "Feature", "properties": { "id": "33024", "ciudad": "Gijón", "provincia": "Asturias", "c_autonoma": "Principado de Asturias", "open_data": "<a href=\"http:\/\/transparencia.gijon.es\/\" target=\"_blank\">Portal de Transparencia y Datos Abiertos [Ayuntamiento de Gijón]<\/a>", "otros_od": "", "datourbano": "", "Notas": "Datos georreferenciados: SI" }, "geometry": { "type": "Point", "coordinates": [ -5.6621226, 43.5450396 ] } },
{ "type": "Feature", "properties": { "id": "48045", "ciudad": "Güeñes", "provincia": "Bizkaia", "c_autonoma": "País Vasco", "open_data": "<a href=\"http:\/\/www.guenes.net\/es-ES\/Ayuntamiento\/OpenData\/Paginas\/default.aspx\" target=\"_blank\">OpenData [Concejo de Güeñes | Gueñesko Udalbatza]<\/a>", "otros_od": "", "datourbano": "", "Notas": "Datos georreferenciados: SI" }, "geometry": { "type": "Point", "coordinates": [ -3.0951737, 43.2104343 ] } },
{ "type": "Feature", "properties": { "id": "39016", "ciudad": "Camargo", "provincia": "Cantabria", "c_autonoma": "Cantabria", "open_data": "<a href=\"http:\/\/datos.aytocamargo.es\/\" target=\"_blank\">Porta de Datos Abiertos [Ayuntamiento de Camargo]<\/a>", "otros_od": "", "datourbano": "", "Notas": "Datos georreferenciados: SI" }, "geometry": { "type": "Point", "coordinates": [ -3.8552018, 43.4235312 ] } },
{ "type": "Feature", "properties": { "id": "20030", "ciudad": "Eibar", "provincia": "Gipuzkoa", "c_autonoma": "País Vasco", "open_data": "<a href=\"http:\/\/eibar.gipuzkoairekia.eus\" target=\"_blank\"> Portal del Gobierno Abierto de Eibar - Ayuntamiento de Eibar | Eibarko Udala [Gipuzkoa Irekia]<\/a>", "otros_od": "", "datourbano": "", "Notas": "Datos georreferenciados: NO" }, "geometry": { "type": "Point", "coordinates": [ -2.4733865, 43.1845605 ] } },
{ "type": "Feature", "properties": { "id": "20017", "ciudad": "Azkoitia", "provincia": "Gipuzkoa", "c_autonoma": "País Vasco", "open_data": "<a href=\"http:\/\/opendataazkoitia.gobernuirekia.eus\" target=\"_blank\">Azkoitia OpenData gunea [Ayuntamiento de Azkoitia | Azkoitiko Udala]<\/a>", "otros_od": "", "datourbano": "", "Notas": "Datos georreferenciados: SI" }, "geometry": { "type": "Point", "coordinates": [ -2.3124714, 43.1776571 ] } },
{ "type": "Feature", "properties": { "id": "20018", "ciudad": "Azpeitia", "provincia": "Gipuzkoa", "c_autonoma": "País Vasco", "open_data": "<a href=\"http:\/\/opendataazpeitia.gobernuirekia.net\/\" target=\"_blank\">Azpeitia OpenData gunea [Ayuntamiento de Azpeitia | Azpeitiko Udala]<\/a>", "otros_od": "", "datourbano": "", "Notas": "Datos georreferenciados: SI" }, "geometry": { "type": "Point", "coordinates": [ -2.2659931, 43.1839406 ] } },
{ "type": "Feature", "properties": { "id": "20079", "ciudad": "Zarautz", "provincia": "Gipuzkoa", "c_autonoma": "País Vasco", "open_data": "<a href=\"http:\/\/zarautz.gipuzkoairekia.eus\/es\/datu-irekien-katalogoa\" target=\"_blank\">Open Data - Ayuntamiento de Zarautz | Zarauzko Udala [Gipuzkoa Irekia]<\/a>", "otros_od": "", "datourbano": "", "Notas": "Datos georreferenciados: NO" }, "geometry": { "type": "Point", "coordinates": [ -2.1751182, 43.2854197 ] } },
{ "type": "Feature", "properties": { "id": "17114", "ciudad": "Olot", "provincia": "Girona", "c_autonoma": "Cataluña", "open_data": "<a href=\"https:\/\/seu-e.cat\/web\/olot\/dades-obertes\" target=\"_blank\">Ajuntament de Olot - Dades Obertes [Consorci Administració Oberta de Catalunya]<\/a>", "otros_od": "", "datourbano": "", "Notas": "Datos georreferenciados: NO" }, "geometry": { "type": "Point", "coordinates": [ 2.4846369, 42.1832137 ] } },
{ "type": "Feature", "properties": { "id": "08112", "ciudad": "Manlleu", "provincia": "Barcelona", "c_autonoma": "Cataluña", "open_data": "<a href=\"https:\/\/dadesobertes-situam.opendata.arcgis.com\/\" target=\"_blank\">Manlleu Dades Obertes [Ajuntament de Manlleu]<\/a>", "otros_od": "", "datourbano": "", "Notas": "Datos georreferenciados: SI" }, "geometry": { "type": "Point", "coordinates": [ 2.2836076, 41.99994 ] } },
{ "type": "Feature", "properties": { "id": "08113", "ciudad": "Manresa", "provincia": "Barcelona", "c_autonoma": "Cataluña", "open_data": "<a href=\"http:\/\/opendata.manresa.cat\/dataset\" target=\"_blank\">Portal Dades Obertes [Ajuntament de Manresa]<\/a>", "otros_od": "", "datourbano": "", "Notas": "Datos georreferenciados: SI" }, "geometry": { "type": "Point", "coordinates": [ 1.8270412, 41.7230321 ] } },
{ "type": "Feature", "properties": { "id": "08102", "ciudad": "Igualada", "provincia": "Barcelona", "c_autonoma": "Cataluña", "open_data": "<a href=\"https:\/\/seu-e.cat\/web\/igualada\/dades-obertes\" target=\"_blank\">Ajuntament de Igualada - Dades Obertes [Consorci Administració Oberta de Catalunya]<\/a>", "otros_od": "", "datourbano": "", "Notas": "Datos georreferenciados: NO" }, "geometry": { "type": "Point", "coordinates": [ 1.6175907, 41.5787431 ] } },
{ "type": "Feature", "properties": { "id": "08096", "ciudad": "Granollers", "provincia": "Barcelona", "c_autonoma": "Cataluña", "open_data": "<a href=\"https:\/\/opendata.granollers.cat\/ca\/\" target=\"_blank\">Portal de dades obertes de Granollers [Ajuntament de Granollers]<\/a>", "otros_od": "", "datourbano": "", "Notas": "Datos georreferenciados: SI" }, "geometry": { "type": "Point", "coordinates": [ 2.2872546, 41.6080979 ] } },
{ "type": "Feature", "properties": { "id": "08279", "ciudad": "Terrassa", "provincia": "Barcelona", "c_autonoma": "Cataluña", "open_data": "<a href=\"https:\/\/opendata.terrassa.cat\" target=\"_blank\">Govern Obert [Ajuntament de Terrassa]<\/a>", "otros_od": "", "datourbano": "", "Notas": "Datos georreferenciados: SI" }, "geometry": { "type": "Point", "coordinates": [ 2.0100226, 41.5630974 ] } },
{ "type": "Feature", "properties": { "id": "08076", "ciudad": "Esparreguera", "provincia": "Barcelona", "c_autonoma": "Cataluña", "open_data": "<a href=\"https:\/\/seu-e.cat\/ca\/web\/esparreguera\/dades-obertes\" target=\"_blank\">Ajuntament de Esparreguera - Dades Obertes [Consorci Administració Oberta de Catalunya]<\/a>", "otros_od": "", "datourbano": "", "Notas": "Datos georreferenciados: NO" }, "geometry": { "type": "Point", "coordinates": [ 1.8706849, 41.5390114 ] } },
{ "type": "Feature", "properties": { "id": "08187", "ciudad": "Sabadell", "provincia": "Barcelona", "c_autonoma": "Cataluña", "open_data": "<a href=\"http:\/\/opendata.sabadell.cat\" target=\"_blank\">DadesObertes SBD [Ajuntament de Sabadell]<\/a>", "otros_od": "", "datourbano": "", "Notas": "Datos georreferenciados: SI" }, "geometry": { "type": "Point", "coordinates": [ 2.1085556, 41.5463359 ] } },
{ "type": "Feature", "properties": { "id": "08238", "ciudad": "Sant Quirze del Vallès", "provincia": "Barcelona", "c_autonoma": "Cataluña", "open_data": "<a href=\"https:\/\/seu-e.cat\/web\/santquirzedelvalles\/dades-obertes\" target=\"_blank\">Ajuntament de Sant Quirze del Vallès - Dades Obertes [Consorci Administració Oberta de Catalunya]<\/a>", "otros_od": "", "datourbano": "", "Notas": "Datos georreferenciados: NO" }, "geometry": { "type": "Point", "coordinates": [ 2.0807633, 41.5332483 ] } },
{ "type": "Feature", "properties": { "id": "08015", "ciudad": "Badalona", "provincia": "Barcelona", "c_autonoma": "Cataluña", "open_data": "<a href=\"http:\/\/opendata.badalona.cat\" target=\"_blank\">Portal de dades obertes de Badalona [Ajuntament de Badalona]<\/a>", "otros_od": "", "datourbano": "", "Notas": "Datos georreferenciados: SI" }, "geometry": { "type": "Point", "coordinates": [ 2.2476381, 41.4501212 ] } },
{ "type": "Feature", "properties": { "id": "08184", "ciudad": "Rubí", "provincia": "Barcelona", "c_autonoma": "Cataluña", "open_data": "<a href=\"https:\/\/opendata.rubi.cat\/\" target=\"_blank\">Open Data Rubí [Ajuntament de Rubí]<\/a>", "otros_od": "", "datourbano": "", "Notas": "Datos georreferenciados: SI" }, "geometry": { "type": "Point", "coordinates": [ 2.0310929, 41.4936718 ] } },
{ "type": "Feature", "properties": { "id": "08205", "ciudad": "Sant Cugat del Vallès", "provincia": "Barcelona", "c_autonoma": "Cataluña", "open_data": "<a href=\"http:\/\/www.opendata.santcugat.cat\/santcugat\/ca\" target=\"_blank\">Open Data SantCugat [Ajuntament de Sant Cugat del Vallès]<\/a>", "otros_od": "", "datourbano": "", "Notas": "Datos georreferenciados: SI" }, "geometry": { "type": "Point", "coordinates": [ 2.0852853, 41.470478 ] } },
{ "type": "Feature", "properties": { "id": "08077", "ciudad": "Esplugues de Llobregat", "provincia": "Barcelona", "c_autonoma": "Cataluña", "open_data": "<a href=\"https:\/\/seu-e.cat\/web\/EspluguesdeLlobregat\/dades-obertes\" target=\"_blank\">AAjuntament de Esplugues de Llobregat - Dades Obertes [Consorci Administració Oberta de Catalunya]<\/a>", "otros_od": "", "datourbano": "", "Notas": "Datos georreferenciados: NO" }, "geometry": { "type": "Point", "coordinates": [ 2.0885076, 41.3776067 ] } },
{ "type": "Feature", "properties": { "id": "08211", "ciudad": "Sant Feliu de Llobregat", "provincia": "Barcelona", "c_autonoma": "Cataluña", "open_data": "<a href=\"http:\/\/opendata.santfeliu.cat\/santfeliu\/\" target=\"_blank\">Portal de Dades Obertes [Ajuntament de Sant Feliu de Llobregat]<\/a>", "otros_od": "", "datourbano": "", "Notas": "Datos georreferenciados: SI" }, "geometry": { "type": "Point", "coordinates": [ 2.0450766, 41.3808322 ] } },
{ "type": "Feature", "properties": { "id": "08073", "ciudad": "Cornellà de Llobregat", "provincia": "Barcelona", "c_autonoma": "Cataluña", "open_data": "<a href=\"http:\/\/opendata.cornella.cat\/cornella\/ca\" target=\"_blank\">Portal de Dades Obertes [Ajuntament de Cornellà de Llobregat]<\/a>", "otros_od": "", "datourbano": "", "Notas": "Datos georreferenciados: SI" }, "geometry": { "type": "Point", "coordinates": [ 2.0701925, 41.355193 ] } },
{ "type": "Feature", "properties": { "id": "08101", "ciudad": "L' Hospitalet de Llobregat", "provincia": "Barcelona", "c_autonoma": "Cataluña", "open_data": "<a href=\"https:\/\/dadesobertes.l-h.cat\/\" target=\"_blank\">Dades Obertes [Ajuntament de L' Hospitalet de Llobregat]<\/a>", "otros_od": "", "datourbano": "", "Notas": "Datos georreferenciados: SI" }, "geometry": { "type": "Point", "coordinates": [ 2.0996474, 41.3594457 ] } },
{ "type": "Feature", "properties": { "id": "08200", "ciudad": "Sant Boi de Llobregat", "provincia": "Barcelona", "c_autonoma": "Cataluña", "open_data": "<a href=\"http:\/\/observatori.santboi.cat\/category\/dades-obertes\/\" target=\"_blank\">Open Data Sant Boi [Ajuntament de Sant Boi de Llobregat]<\/a>", "otros_od": "", "datourbano": "", "Notas": "En construcción" }, "geometry": { "type": "Point", "coordinates": [ 2.0431627, 41.3475389 ] } },
{ "type": "Feature", "properties": { "id": "08169", "ciudad": "El Prat de Llobregat", "provincia": "Barcelona", "c_autonoma": "Cataluña", "open_data": "<a href=\"https:\/\/seu-e.cat\/web\/elpratdellobregat\/dades-obertes\" target=\"_blank\">Ajuntament de El Prat de Llobregat - Dades Obertes [Consorci Administració Oberta de Catalunya]<\/a>", "otros_od": "", "datourbano": "", "Notas": "Datos georreferenciados: NO" }, "geometry": { "type": "Point", "coordinates": [ 2.0930536, 41.3307417 ] } },
{ "type": "Feature", "properties": { "id": "08301", "ciudad": "Viladecans", "provincia": "Barcelona", "c_autonoma": "Cataluña", "open_data": "<a href=\"http:\/\/opendata.viladecans.cat\/viladecans\/ca\" target=\"_blank\">Portal de Dades Obertes [Ajuntament de Viladecans]<\/a>", "otros_od": "", "datourbano": "", "Notas": "No existen datos" }, "geometry": { "type": "Point", "coordinates": [ 2.0200494, 41.3160198 ] } },
{ "type": "Feature", "properties": { "id": "08089", "ciudad": "Gavà", "provincia": "Barcelona", "c_autonoma": "Cataluña", "open_data": "<a href=\"https:\/\/gavaobert.gavaciutat.cat\/\" target=\"_blank\">Gavà Obert [Ajuntament de Gavà]<\/a> ", "otros_od": "", "datourbano": "", "Notas": "Datos georreferenciados: SI" }, "geometry": { "type": "Point", "coordinates": [ 1.9989, 41.3038837 ] } },
{ "type": "Feature", "properties": { "id": "08056", "ciudad": "Castelldefels", "provincia": "Barcelona", "c_autonoma": "Cataluña", "open_data": "<a href=\"https:\/\/seu-e.cat\/ca\/web\/castelldefels\/dades-obertes\" target=\"_blank\"AAjuntament de Castelldefels - Dades Obertes [Consorci Administració Oberta de Catalunya]<\/a>", "otros_od": "", "datourbano": "", "Notas": "Datos georreferenciados: NO" }, "geometry": { "type": "Point", "coordinates": [ 1.9767224, 41.2801431 ] } },
{ "type": "Feature", "properties": { "id": "43014", "ciudad": "Amposta", "provincia": "Tarragona", "c_autonoma": "Cataluña", "open_data": "<a href=\"https:\/\/seu-e.cat\/ca\/web\/amposta\/dades-obertes\" target=\"_blank\">Ajuntament de Amposta - Dades Obertes [Consorci Administració Oberta de Catalunya]<\/a>", "otros_od": "", "datourbano": "", "Notas": "Datos georreferenciados: NO" }, "geometry": { "type": "Point", "coordinates": [ 0.5810292, 40.7134193 ] } },
{ "type": "Feature", "properties": { "id": "46244", "ciudad": "Torrent", "provincia": "Valencia", "c_autonoma": "Comunitat Valenciana", "open_data": "<a href=\"http:\/\/datosabiertos.torrent.es\/\" target=\"_blank\">Portal Open Data [Ajuntament de Torrent]<\/a>", "otros_od": "", "datourbano": "", "Notas": "Datos georreferenciados: SI" }, "geometry": { "type": "Point", "coordinates": [ -0.4659033, 39.436754 ] } },
{ "type": "Feature", "properties": { "id": "30024", "ciudad": "Lorca", "provincia": "Murcia", "c_autonoma": "Región de Murcia", "open_data": "<a href=\"http:\/\/datos.lorca.es\/\" target=\"_blank\">Datos Abiertos [Ayuntamiento de Lorca]<\/a>", "otros_od": "", "datourbano": "", "Notas": "Datos georreferenciados: SI" }, "geometry": { "type": "Point", "coordinates": [ -1.6997951, 37.6764791 ] } },
{ "type": "Feature", "properties": { "id": "23060", "ciudad": "Martos", "provincia": "Jaén", "c_autonoma": "Andalucía", "open_data": "<a href=\"https:\/\/martos.es\/index.php\/nuevas-tecnologias\/datos-abiertos2\" target=\"_blank\">Datos Abiertos [Ayuntamiento de Martos]<\/a>", "otros_od": "", "datourbano": "", "Notas": "Datos georreferenciados: NO" }, "geometry": { "type": "Point", "coordinates": [ -3.9657974, 37.7228538 ] } },
{ "type": "Feature", "properties": { "id": "14042", "ciudad": "Montilla", "provincia": "Córdoba", "c_autonoma": "Andalucía", "open_data": "<a href=\"http:\/\/www.montilla.es\/contenido\/datos-abiertos\" target=\"_blank\">Datos Abiertos [Ayuntamiento de Montilla]<\/a>", "otros_od": "", "datourbano": "", "Notas": "Datos georreferenciados: SI  (Diputación de Córdoba)" }, "geometry": { "type": "Point", "coordinates": [ -4.6400597, 37.5863171 ] } },
{ "type": "Feature", "properties": { "id": "14038", "ciudad": "Lucena", "provincia": "Córdoba", "c_autonoma": "Andalucía", "open_data": "<a href=\"http:\/\/www.aytolucena.es\/contenido\/datos-abiertos\" target=\"_blank\">Datos Abiertos [Ayuntamiento de Lucena]<\/a>", "otros_od": "", "datourbano": "", "Notas": "Datos georreferenciados: SI (Diputación de Córdoba)" }, "geometry": { "type": "Point", "coordinates": [ -4.4855473, 37.4088232 ] } },
{ "type": "Feature", "properties": { "id": "14055", "ciudad": "Priego de Córdoba", "provincia": "Córdoba", "c_autonoma": "Andalucía", "open_data": "<a href=\"http:\/\/www.priegodecordoba.es\/contenido\/datos-abiertos\" target=\"_blank\">Datos Abiertos [Ayuntamiento de Priego de Córdoba]<\/a>", "otros_od": "", "datourbano": "", "Notas": "Datos georreferenciados: SI  (Diputación de Córdoba)" }, "geometry": { "type": "Point", "coordinates": [ -4.1949142, 37.4388504 ] } },
{ "type": "Feature", "properties": { "id": "29007", "ciudad": "Alhaurín de la Torre", "provincia": "Málaga", "c_autonoma": "Andalucía", "open_data": "<a href=\"http:\/\/transparencia.alhaurindelatorre.es\/dataset\" target=\"_blank\">Portal de Transparencia [Ayuntamiento de Alhaurín de la Torre]<\/a>", "otros_od": "", "datourbano": "", "Notas": "Datos georreferenciados: SI" }, "geometry": { "type": "Point", "coordinates": [ -4.565002, 36.6615131 ] } },
{ "type": "Feature", "properties": { "id": "29054", "ciudad": "Fuengirola", "provincia": "Málaga", "c_autonoma": "Andalucía", "open_data": "<a href=\"http:\/\/datosabiertos.fuengirola.es\/\" target=\"_blank\">Portal Datos Abiertos [Ayuntamiento de Fuengirola]<\/a>", "otros_od": "", "datourbano": "", "Notas": "Datos georreferenciados: SI" }, "geometry": { "type": "Point", "coordinates": [ -4.6268072, 36.5370993 ] } },
{ "type": "Feature", "properties": { "id": "29069", "ciudad": "Marbella", "provincia": "Málaga", "c_autonoma": "Andalucía", "open_data": "<a href=\"http:\/\/opendata.marbella.es\/\" target=\"_blank\">Portal Datos Abiertos [Ayuntamiento de Marbella]<\/a>", "otros_od": "", "datourbano": "", "Notas": "Actualmente no se puede acceder a este sitio web" }, "geometry": { "type": "Point", "coordinates": [ -4.8851499, 36.5103461 ] } },
{ "type": "Feature", "properties": { "id": "11008", "ciudad": "Los Barrios", "provincia": "Cádiz", "c_autonoma": "Andalucía", "open_data": "<a href=\"http:\/\/www.losbarrios.es\/el-consistorio\/ayuntamiento\/participacion-ciudadana\/datos-abiertos\/\" target=\"_blank\">Datos Abiertos [Ayuntamiento de Los Barrios]<\/a>", "otros_od": "", "datourbano": "", "Notas": "Datos georreferenciados: NO" }, "geometry": { "type": "Point", "coordinates": [ -5.4928322, 36.1855888 ] } },
{ "type": "Feature", "properties": { "id": "11027", "ciudad": "El Puerto de Santa María", "provincia": "Cádiz", "c_autonoma": "Andalucía", "open_data": "<a href=\"https:\/\/www.elpuertodesantamaria.es\/index.php?men_id=436&art_id=9262&PRY=\" target=\"_blank\">Datos Abiertos [Ayuntamiento de El Puerto de Santa María]<\/a>", "otros_od": "", "datourbano": "", "Notas": "Datos georreferenciados: NO" }, "geometry": { "type": "Point", "coordinates": [ -6.2253837, 36.6005262 ] } },
{ "type": "Feature", "properties": { "id": "28074", "ciudad": "Leganés", "provincia": "Madrid", "c_autonoma": "Comunidad de Madrid", "open_data": "<a href=\"http:\/\/www.leganes.org\/portal\/contenedor_ficha.jsp?seccion=s_fdes_d4_v1.jsp&codbusqueda=1916&language=es&codResi=1&codMenuPN=4&codMenu=1939&layout=contenedor_ficha.jsp\" target=\"_blank\">Catálogo de datos abiertos [Ayuntamiento de Leganés]<\/a>", "otros_od": "", "datourbano": "", "Notas": "Datos georreferenciados: NO" }, "geometry": { "type": "Point", "coordinates": [ -3.7683963, 40.326031 ] } },
{ "type": "Feature", "properties": { "id": "28015", "ciudad": "Arroyomolinos", "provincia": "Madrid", "c_autonoma": "Comunidad de Madrid", "open_data": "<a href=\"http:\/\/www.arroyomolinos.es\/open-data\" target=\"_blank\">Open Data [Ayuntamiento de Arroyomolinos]<\/a>", "otros_od": "", "datourbano": "", "Notas": "Datos georreferenciados: NO" }, "geometry": { "type": "Point", "coordinates": [ -3.920088, 40.2677266 ] } },
{ "type": "Feature", "properties": { "id": "28014", "ciudad": "Arganda del Rey", "provincia": "Madrid", "c_autonoma": "Comunidad de Madrid", "open_data": "<a href=\"http:\/\/archivo.ayto-arganda.es\/ElArchivo\/Fondos\/OpenData.aspx\" target=\"_blank\">Open Data [Ayuntamiento de Arganda del Rey]<\/a>", "otros_od": "", "datourbano": "", "Notas": "Datos georreferenciados: NO" }, "geometry": { "type": "Point", "coordinates": [ -3.437416, 40.3007987 ] } },
{ "type": "Feature", "properties": { "id": "28006", "ciudad": "Alcobendas", "provincia": "Madrid", "c_autonoma": "Comunidad de Madrid", "open_data": "<a href=\"http:\/\/datos.alcobendas.org\/\" target=\"_blank\">Datos Abiertos [Ayuntamiento de Alcobendas]<\/a>", "otros_od": "", "datourbano": "", "Notas": "Datos georreferenciados: SI" }, "geometry": { "type": "Point", "coordinates": [ -3.6417668, 40.5475226 ] } },
{ "type": "Feature", "properties": { "id": "35024", "ciudad": "Teguise", "provincia": "Las Palmas", "c_autonoma": "Canarias", "open_data": "<a href=\"https:\/\/sede.teguise.es\/transparencia\" target=\"_blank\">Portal de transparencia [Ayuntamiento de Teguise]<\/a>", "otros_od": "", "datourbano": "", "Notas": "Datos georreferenciados: NO" }, "geometry": { "type": "Point", "coordinates": [ -13.5612164, 29.0572733 ] } },
{ "type": "Feature", "properties": { "id": "35019", "ciudad": "San Bartolomé de Tirajana\n", "provincia": "Las Palmas", "c_autonoma": "Canarias", "open_data": "<a href=\"https:\/\/eadmin.maspalomas.com\/transparencia\" target=\"_blank\">Portal de transparencia [Ayuntamiento de San Bartolomé de Tirajana]<\/a>", "otros_od": "", "datourbano": "", "Notas": "Datos georreferenciados: NO" }, "geometry": { "type": "Point", "coordinates": [ -15.5855183, 27.7665664 ] } },
{ "type": "Feature", "properties": { "id": "38023", "ciudad": "San Cristóbal de La Laguna", "provincia": "Santa Cruz de Tenerife", "c_autonoma": "Canarias", "open_data": "<a href=\"http:\/\/datos.aytolalaguna.es\/organization\/ayuntamiento-de-san-cristobal-de-la-laguna\" target=\"_blank\">Portal de Datos Abiertos [Ayuntamiento de San Cristóbal de La Laguna]<\/a>", "otros_od": "", "datourbano": "", "Notas": "Datos georreferenciados: NO" }, "geometry": { "type": "Point", "coordinates": [ -16.3139866, 28.4872735 ] } },
{ "type": "Feature", "properties": { "id": "38043", "ciudad": "Tacoronte", "provincia": "Santa Cruz de Tenerife", "c_autonoma": "Canarias", "open_data": "<a href=\"https:\/\/sede.tacoronte.es\/publico\/opendata\/catalogo\" target=\"_blank\">Portal de transparencia [Ayuntamiento de Tacoronte]<\/a>", "otros_od": "", "datourbano": "", "Notas": "Datos georreferenciados: NO" }, "geometry": { "type": "Point", "coordinates": [ -16.4127164, 28.4808982 ] } },
{ "type": "Feature", "properties": { "id": "38028", "ciudad": "Puerto de la Cruz", "provincia": "Santa Cruz de Tenerife", "c_autonoma": "Canarias", "open_data": " <a href=\"https:\/\/sedeelectronica.puertodelacruz.es\/publico\/opendata\/catalogo\" target=\"_blank\">Portal de transparencia [Ayuntamiento de Puerto de la Cruz]<\/a>", "otros_od": "", "datourbano": "", "Notas": "Datos georreferenciados: NO" }, "geometry": { "type": "Point", "coordinates": [ -16.5484848, 28.4180124 ] } },
{ "type": "Feature", "properties": { "id": "38019", "ciudad": "Guía de Isora", "provincia": "Santa Cruz de Tenerife", "c_autonoma": "Canarias", "open_data": "<a href=\"https:\/\/sede.guiadeisora.es\/publico\/openData\/catalogo\" target=\"_blank\">Portal de transparencia [Ayuntamiento de Guía de Isora]<\/a>", "otros_od": "", "datourbano": "", "Notas": "Datos georreferenciados: NO" }, "geometry": { "type": "Point", "coordinates": [ -16.7785242, 28.2092903 ] } },
{ "type": "Feature", "properties": { "id": "38006", "ciudad": "Arona", "provincia": "Santa Cruz de Tenerife", "c_autonoma": "Canarias", "open_data": "<a href=\"http:\/\/datos.arona.org\/\" target=\"_blank\">Datos Abiertos [Ayuntamiento de Arona]<\/a>", "otros_od": "", "datourbano": "", "Notas": "Datos georreferenciados: SI" }, "geometry": { "type": "Point", "coordinates": [ -16.6806707, 28.0999674 ] } },
{ "type": "Feature", "properties": { "id": "38024", "ciudad": "Llanos de Aridane, Los", "provincia": "Santa Cruz de Tenerife", "c_autonoma": "Canarias", "open_data": "<a href=\"https:\/\/eadmin.aridane.org\/publico\/opendata\/catalogo\" target=\"_blank\">Portal de transparencia [Ayuntamiento de Los Llanos de Aridane]<\/a>", "otros_od": "", "datourbano": "", "Notas": "Datos georreferenciados: NO" }, "geometry": { "type": "Point", "coordinates": [ -17.9131807, 28.6586582 ] } },
{ "type": "Feature", "properties": { "id": "33044", "ciudad": "Oviedo", "provincia": "Asturias", "c_autonoma": "Principado de Asturias", "open_data": "<a href=\"http:\/\/www.oviedo.es\/opendata\" target=\"_blank\">Open Data  [Ayuntamiento de Oviedo]<\/a>", "otros_od": "", "datourbano": "", "Notas": "Datos georreferenciados: NO" }, "geometry": { "type": "Point", "coordinates": [ -5.8448803, 43.3605107 ] } },
{ "type": "Feature", "properties": { "id": "26089", "ciudad": "Logroño", "provincia": "La Rioja", "c_autonoma": "La Rioja", "open_data": "<a href=\"http:\/\/www.xn--logroo-0wa.es\/wps\/portal\/web\/inicio\/especiales\/fiware\/!ut\/p\/c4\/04_SB8K8xLLM9MSSzPy8xBz9CP0os_hAc9NQf293QwMDFyB29PT2sDAyMzQ28DbTL8h2VAQA_QzA3Q!!\/?WCM_GLOBAL_CONTEXT=\/web_es\/logrono\/especiales\/fiware\" target=\"_blank\">Fiware Open Data Logroño [Ayuntamiento de Logroño]<\/a>", "otros_od": "", "datourbano": "", "Notas": "Servicio temporalmente no disponible" }, "geometry": { "type": "Point", "coordinates": [ -2.4394024, 42.4665121 ] } },
{ "type": "Feature", "properties": { "id": "20067", "ciudad": "Errenteria", "provincia": "Guipuzkoa", "c_autonoma": "País Vasco", "open_data": "<a href=\"http:\/\/www.gipuzkoairekia.eus\/es\/web\/errenteria\/datu-irekien-katalogoa\" target=\"_blank\">  Datos Abiertos - Ayuntamiento de Errenteria | Errentiako Udala [Gipuzkoa Irekia]<\/a>", "otros_od": "", "datourbano": "", "Notas": "Datos georreferenciados: NO" }, "geometry": { "type": "Point", "coordinates": [ -1.8988073, 43.3126676 ] } }
]
}
