{
"type": "FeatureCollection",
"crs": { "type": "name", "properties": { "name": "urn:ogc:def:crs:OGC:1.3:CRS84" } },
"features": [
{ "type": "Feature", "properties": { "id": "20069", "ciudad": "Donostia\/San Sebastián", "provincia": "Gipuzkoa", "c_autonoma": "País Vasco", "open_data": "<a href=\"https:\/\/www.donostia.eus\/info\/udalinfo\/servicios_opendata.nsf\/vowebContenidosId\/NT000008FE?OpenDocument&idioma=cas&id=D429174410546&doc=D\" target=\"_blank\">Datos Abiertos [Ayuntamiento de Donostia\/San Sebastián | Donostiako Udala]<\/a>", "otros_od": null, "datourbano": "<a href=\"https:\/\/datourbano.github.io\/donostia_san_sebastian\" target=\"_blank\">Dato Urbano - Donostia\/San Sebastián<\/a>", "Notas": "Datos georreferenciados: SI" }, "geometry": { "type": "Point", "coordinates": [ -1.985729, 43.321513 ] } },
{ "type": "Feature", "properties": { "id": "43148", "ciudad": "Tarragona", "provincia": "Tarragona", "c_autonoma": "Cataluña", "open_data": "<a href=\"http:\/\/opendata.tarragona.cat\/tarragona\/es\/\" target=\"_blank\">Dades Obertes [Ayuntamiento de Tarragona]<\/a>", "otros_od": null, "datourbano": null, "Notas": "Actualmente no se puede acceder a este sitio web" }, "geometry": { "type": "Point", "coordinates": [ 1.254292571924858, 41.117385661093508 ] } },
{ "type": "Feature", "properties": { "id": "17079", "ciudad": "Girona", "provincia": "Girona", "c_autonoma": "Cataluña", "open_data": "<a href=\"http:\/\/www.girona.cat\/opendata\/\" target=\"_blank\">Girona Open Data [Ajuntament de Girona]<\/a>", "otros_od": null, "datourbano": null, "Notas": "Datos georreferenciados: SI" }, "geometry": { "type": "Point", "coordinates": [ 2.824781657066532, 41.983081548277468 ] } },
{ "type": "Feature", "properties": { "id": "08019", "ciudad": "Barcelona", "provincia": "Barcelona", "c_autonoma": "Cataluña", "open_data": "<a href=\"http:\/\/opendata-ajuntament.barcelona.cat\/\" target=\"_blank\">Open Data BCN [Ajuntament de Barcelona]<\/a>", "otros_od": "<a href=\"https:\/\/www.tmb.cat\/ca\/sobre-tmb\/eines-per-a-desenvolupadors\" target=\"_blank\">Eines per a desenvolupadors - Transports Metropolitans de Barcelona TMB<\/a>", "datourbano": "<a href=\"https:\/\/datourbano.github.io\/barcelona\" target=\"_blank\">Dato Urbano - Barcelona<\/a>", "Notas": "Datos georreferenciados: SÍ" }, "geometry": { "type": "Point", "coordinates": [ 2.177188086170022, 41.382493852222829 ] } },
{ "type": "Feature", "properties": { "id": "25120", "ciudad": "Lleida", "provincia": "Lleida", "c_autonoma": "Cataluña", "open_data": "<a href=\"http:\/\/www.paeria.cat\/opendata\/ca\/opendata.asp\" target=\"_blank\">Dades Obertes de Lleida [Ajuntament de Lleida]<\/a>", "otros_od": null, "datourbano": null, "Notas": "Datos georreferenciados: SI" }, "geometry": { "type": "Point", "coordinates": [ 0.626726208629724, 41.614705561915159 ] } },
{ "type": "Feature", "properties": { "id": "50297", "ciudad": "Zaragoza", "provincia": "Zaragoza", "c_autonoma": "Aragón", "open_data": "<a href=\"http:\/\/www.zaragoza.es\/ciudad\/risp\/\" target=\"_blank\">Datos Abiertos [Ayuntamiento de Zaragoza]<\/a>", "otros_od": null, "datourbano": null, "Notas": "Datos georreferenciados: SI" }, "geometry": { "type": "Point", "coordinates": [ -0.877481943566129, 41.656009415308993 ] } },
{ "type": "Feature", "properties": { "id": "16078", "ciudad": "Cuenca", "provincia": "Cuenca", "c_autonoma": "Castilla-La Mancha", "open_data": "<a href=\"http:\/\/gobiernoabierto.cuenca.es\/default.aspx\" target=\"_blank\">Gobierno Abierto [Ayuntamiento de Cuenca]<\/a>", "otros_od": null, "datourbano": null, "Notas": "Datos georreferenciados: SI" }, "geometry": { "type": "Point", "coordinates": [ -2.130184645388876, 40.077903074743304 ] } },
{ "type": "Feature", "properties": { "id": "02003", "ciudad": "Albacete", "provincia": "Albacete", "c_autonoma": "Castilla-La Mancha", "open_data": "<a href=\"http:\/\/www.albacete.es\/es\/webs-municipales\/datos-abiertos\" target=\"_blank\">Datos abiertos [Ayuntamiento de Albacete]<\/a>", "otros_od": null, "datourbano": null, "Notas": "Datos georreferenciados: SI" }, "geometry": { "type": "Point", "coordinates": [ -1.855800617482841, 38.996185174066348 ] } },
{ "type": "Feature", "properties": { "id": "46250", "ciudad": "Valencia", "provincia": "Valencia", "c_autonoma": "Comunitat Valenciana", "open_data": "<a href=\"http:\/\/gobiernoabierto.valencia.es\/va\/\" target=\"_blank\">Portal de Transparència i Dades Obertes [Ajuntament de València]<\/a>", "otros_od": null, "datourbano": null, "Notas": "Datos georreferenciados: SI" }, "geometry": { "type": "Point", "coordinates": [ -0.3770022278314, 39.469805904859925 ] } },
{ "type": "Feature", "properties": { "id": "29067", "ciudad": "Málaga", "provincia": "Málaga", "c_autonoma": "Andalucía", "open_data": "<a href=\"http:\/\/datosabiertos.malaga.eu\/\" target=\"_blank\">Portal de Datos Abiertos [Ayuntamiento de Málaga]<\/a>", "otros_od": null, "datourbano": null, "Notas": "Datos georreferenciados: SI" }, "geometry": { "type": "Point", "coordinates": [ -4.414952224578534, 36.72018475464025 ] } },
{ "type": "Feature", "properties": { "id": "41091", "ciudad": "Sevilla", "provincia": "Sevilla", "c_autonoma": "Andalucía", "open_data": "<a href=\"http:\/\/datosabiertos.sevilla.org\/\" target=\"_blank\">Portal de Datos Abiertos [Ayuntamiento de Sevilla]<\/a>", "otros_od": "<a href=\"http:\/\/sig.urbanismosevilla.org\/sevilla.art\/datosabiertos\/\" target=\"_blank\">Datos Abiertos Espaciales- Ayuntamiento de Sevilla<\/a>", "datourbano": "<a href=\"https:\/\/datourbano.github.io\/sevilla\" target=\"_blank\">Dato Urbano - Sevilla<\/a>", "Notas": "Datos georreferenciados: SI" }, "geometry": { "type": "Point", "coordinates": [ -5.994609387808802, 37.388627394388777 ] } },
{ "type": "Feature", "properties": { "id": "10037", "ciudad": "Cáceres", "provincia": "Cáceres", "c_autonoma": "Extremadura", "open_data": "<a href=\"http:\/\/opendata.caceres.es\/\" target=\"_blank\">Opendata Cáceres [Ayuntamiento de Cáceres]<\/a>", "otros_od": null, "datourbano": null, "Notas": "Datos georreferenciados: SI" }, "geometry": { "type": "Point", "coordinates": [ -6.371861371273713, 39.474514444933071 ] } },
{ "type": "Feature", "properties": { "id": "28079", "ciudad": "Madrid", "provincia": "Madrid", "c_autonoma": "Comunidad de Madrid", "open_data": "<a href=\"http:\/\/datos.madrid.es\/portal\/site\/egob\/\" target=\"_blank\">Portal de Datos Abiertos [Ayuntamiento de Madrid]<\/a>", "otros_od": "<a href=\"http:\/\/opendata.emtmadrid.es\/Home\" target=\"_blank\">Open Data Empresa Municipal de Transportes EMT<\/a>", "datourbano": "<a href=\"https:\/\/datourbano.github.io\/madrid\" target=\"_blank\">Dato Urbano - Madrid<\/a>", "Notas": "Datos georreferenciados: SI" }, "geometry": { "type": "Point", "coordinates": [ -3.692152557743561, 40.418971981900157 ] } },
{ "type": "Feature", "properties": { "id": "47186", "ciudad": "Valladolid", "provincia": "Valladolid", "c_autonoma": "Castilla y León", "open_data": "<a href=\"http:\/\/www.valladolid.es\/es\/temas\/hacemos\/open-data-datos-abiertos\" target=\"_blank\">Open Data - Datos Abiertos [Ayuntamiento de Valladolid]<\/a>", "otros_od": null, "datourbano": null, "Notas": "Datos georreferenciados: SI" }, "geometry": { "type": "Point", "coordinates": [ -4.728647638592801, 41.652351060031044 ] } },
{ "type": "Feature", "properties": { "id": "15030", "ciudad": "A Coruña", "provincia": "A Coruña", "c_autonoma": "Galicia", "open_data": "<a href=\"https:\/\/smart.coruna.es\/OpenData\/COR\/index.html\" target=\"_blank\">Coruña Smart City Open Data [Ayuntamiento de A Coruña | Concello da Coruña]<\/a>", "otros_od": null, "datourbano": null, "Notas": "Funcionamiento irregular" }, "geometry": { "type": "Point", "coordinates": [ -8.395845854477866, 43.371328082312544 ] } },
{ "type": "Feature", "properties": { "id": "28123", "ciudad": "Rivas-Vaciamadrid", "provincia": "Madrid", "c_autonoma": "Comunidad de Madrid", "open_data": "<a href=\"http:\/\/datosabiertos.rivasciudad.es\/\" target=\"_blank\">Portal de Datos Abiertos [Ayuntamiento de Rivas-Vaciamadrid]<\/a>", "otros_od": "", "datourbano": "", "Notas": "Datos georreferenciados: SI" }, "geometry": { "type": "Point", "coordinates": [ -3.547980110981354, 40.354991243561074 ] } },
{ "type": "Feature", "properties": { "id": "39075", "ciudad": "Santander", "provincia": "Cantabria", "c_autonoma": "Cantabria", "open_data": "<a href=\"http:\/\/datos.santander.es\/\" target=\"_blank\">Portal de Datos Abiertos [Ayuntamiento de Santander]<\/a>", "otros_od": null, "datourbano": null, "Notas": "Datos georreferenciados: SI" }, "geometry": { "type": "Point", "coordinates": [ -3.809975257992598, 43.46217846581235 ] } },
{ "type": "Feature", "properties": { "id": "48020", "ciudad": "Bilbao", "provincia": "Bizkaia", "c_autonoma": "País Vasco", "open_data": "<a href=\"https:\/\/www.bilbao.eus\/opendata\/es\/inicio\" target=\"_blank\">Portal de Datos Abiertos [Ayuntamiento de Bilbao]<\/a>", "otros_od": null, "datourbano": null, "Notas": "Datos georreferenciados: SI" }, "geometry": { "type": "Point", "coordinates": [ -2.923505340665835, 43.264119461187455 ] } },
{ "type": "Feature", "properties": { "id": "01059", "ciudad": "Vitoria-Gasteiz", "provincia": "Araba-Álava", "c_autonoma": "País Vasco", "open_data": "<a href=\"http:\/\/www.vitoria-gasteiz.org\/j34-01w\/catalogo\/portada?idioma=es\" target=\"_blank\">Open data Vitoria-Gasteiz [Ayuntamiento de Vitoria-Gasteiz]<\/a>", "otros_od": null, "datourbano": null, "Notas": "Datos georreferenciados: SI" }, "geometry": { "type": "Point", "coordinates": [ -2.672370750015053, 42.84678415453692 ] } },
{ "type": "Feature", "properties": { "id": "31201", "ciudad": "Pamplona\/Iruña", "provincia": "Navarra", "c_autonoma": "Comunidad Foral de Navarra", "open_data": "<a href=\"http:\/\/www.pamplona.es\/verpagina.asp?idpag=1519\" target=\"_blank\">Portal de Open Data  [Ayuntamiento de Pamplona | Iruñeko Udala]<\/a>", "otros_od": null, "datourbano": null, "Notas": "Datos georreferenciados: SI" }, "geometry": { "type": "Point", "coordinates": [ -1.644182837570979, 42.81843735743886 ] } },
{ "type": "Feature", "properties": { "id": "38038", "ciudad": "Santa Cruz de Tenerife", "provincia": "Santa Cruz de Tenerife", "c_autonoma": "Canarias", "open_data": "<a href=\"http:\/\/www.santacruzdetenerife.es\/opendata\/\" target=\"_blank\">Portal de Datos Abiertos [Ayuntamiento de Santa Cruz de Tenerife]<\/a>", "otros_od": null, "datourbano": null, "Notas": "Datos georreferenciados: SI" }, "geometry": { "type": "Point", "coordinates": [ -16.254669024619609, 28.469830639670739 ] } },
{ "type": "Feature", "properties": { "id": "35016", "ciudad": "Las Palmas de Gran Canaria", "provincia": "Las Palmas", "c_autonoma": "Canarias", "open_data": "<a href=\"http:\/\/datosabiertos.laspalmasgc.es\/\" target=\"_blank\">Portal Open Data [Ayuntamiento de Las Palmas de Gran Canaria]<\/a>", "otros_od": null, "datourbano": null, "Notas": "Datos georreferenciados: SI" }, "geometry": { "type": "Point", "coordinates": [ -15.428539231195112, 28.12503146609528 ] } },
{ "type": "Feature", "properties": { "id": "33024", "ciudad": "Gijón", "provincia": "Asturias", "c_autonoma": "Principado de Asturias", "open_data": "<a href=\"http:\/\/transparencia.gijon.es\/\" target=\"_blank\">Portal de Transparencia y Datos Abiertos [Ayuntamiento de Gijón]<\/a>", "otros_od": "", "datourbano": "", "Notas": "Datos georreferenciados: SI" }, "geometry": { "type": "Point", "coordinates": [ -5.662122633573934, 43.545039639047417 ] } },
{ "type": "Feature", "properties": { "id": "48045", "ciudad": "Güeñes", "provincia": "Bizkaia", "c_autonoma": "País Vasco", "open_data": "<a href=\"http:\/\/www.guenes.net\/es-ES\/Ayuntamiento\/OpenData\/Paginas\/default.aspx\" target=\"_blank\">OpenData [Concejo de Güeñes | Gueñesko Udalbatza]<\/a>", "otros_od": null, "datourbano": null, "Notas": "Datos georreferenciados: SI" }, "geometry": { "type": "Point", "coordinates": [ -3.095173650476304, 43.210434324393198 ] } },
{ "type": "Feature", "properties": { "id": "39016", "ciudad": "Camargo", "provincia": "Cantabria", "c_autonoma": "Cantabria", "open_data": "<a href=\"http:\/\/datos.aytocamargo.es\/\" target=\"_blank\">Porta de Datos Abiertos [Ayuntamiento de Camargo]<\/a>", "otros_od": "", "datourbano": "", "Notas": "Datos georreferenciados: SI" }, "geometry": { "type": "Point", "coordinates": [ -3.855201803156468, 43.423531212440359 ] } },
{ "type": "Feature", "properties": { "id": "20030", "ciudad": "Eibar", "provincia": "Gipuzkoa", "c_autonoma": "País Vasco", "open_data": "<a href=\"http:\/\/eibar.gipuzkoairekia.eus\" target=\"_blank\"> Portal del Gobierno Abierto de Eibar - Ayuntamiento de Eibar | Eibarko Udala [Gipuzkoa Irekia]<\/a>", "otros_od": null, "datourbano": null, "Notas": "Datos georreferenciados: NO" }, "geometry": { "type": "Point", "coordinates": [ -2.473386505410982, 43.184560480980217 ] } },
{ "type": "Feature", "properties": { "id": "20017", "ciudad": "Azkoitia", "provincia": "Gipuzkoa", "c_autonoma": "País Vasco", "open_data": "<a href=\"http:\/\/opendataazkoitia.gobernuirekia.eus\" target=\"_blank\">Azkoitia OpenData gunea [Ayuntamiento de Azkoitia | Azkoitiko Udala]<\/a>", "otros_od": null, "datourbano": null, "Notas": "Datos georreferenciados: SI" }, "geometry": { "type": "Point", "coordinates": [ -2.312471384535922, 43.177657102839511 ] } },
{ "type": "Feature", "properties": { "id": "20018", "ciudad": "Azpeitia", "provincia": "Gipuzkoa", "c_autonoma": "País Vasco", "open_data": "<a href=\"http:\/\/opendataazpeitia.gobernuirekia.net\/\" target=\"_blank\">Azpeitia OpenData gunea [Ayuntamiento de Azpeitia | Azpeitiko Udala]<\/a>", "otros_od": null, "datourbano": null, "Notas": "Datos georreferenciados: SI" }, "geometry": { "type": "Point", "coordinates": [ -2.265993079050039, 43.183940626333964 ] } },
{ "type": "Feature", "properties": { "id": "20079", "ciudad": "Zarautz", "provincia": "Gipuzkoa", "c_autonoma": "País Vasco", "open_data": "<a href=\"http:\/\/zarautz.gipuzkoairekia.eus\/es\/datu-irekien-katalogoa\" target=\"_blank\">Open Data - Ayuntamiento de Zarautz | Zarauzko Udala [Gipuzkoa Irekia]<\/a>", "otros_od": null, "datourbano": null, "Notas": "Datos georreferenciados: NO" }, "geometry": { "type": "Point", "coordinates": [ -2.175118192488282, 43.285419729797503 ] } },
{ "type": "Feature", "properties": { "id": "17114", "ciudad": "Olot", "provincia": "Girona", "c_autonoma": "Cataluña", "open_data": "<a href=\"https:\/\/seu-e.cat\/web\/olot\/dades-obertes\" target=\"_blank\">Ajuntament de Olot - Dades Obertes [Consorci Administració Oberta de Catalunya]<\/a>", "otros_od": null, "datourbano": null, "Notas": "Datos georreferenciados: NO" }, "geometry": { "type": "Point", "coordinates": [ 2.484636937737785, 42.183213741096687 ] } },
{ "type": "Feature", "properties": { "id": "08112", "ciudad": "Manlleu", "provincia": "Barcelona", "c_autonoma": "Cataluña", "open_data": "<a href=\"https:\/\/dadesobertes-situam.opendata.arcgis.com\/\" target=\"_blank\">Manlleu Dades Obertes [Ajuntament de Manlleu]<\/a>", "otros_od": null, "datourbano": null, "Notas": "Datos georreferenciados: SI" }, "geometry": { "type": "Point", "coordinates": [ 2.28360764028744, 41.999939972237698 ] } },
{ "type": "Feature", "properties": { "id": "08113", "ciudad": "Manresa", "provincia": "Barcelona", "c_autonoma": "Cataluña", "open_data": "<a href=\"http:\/\/opendata.manresa.cat\/dataset\" target=\"_blank\">Portal Dades Obertes [Ajuntament de Manresa]<\/a>", "otros_od": null, "datourbano": null, "Notas": "Datos georreferenciados: SI" }, "geometry": { "type": "Point", "coordinates": [ 1.827041231462262, 41.72303206836169 ] } },
{ "type": "Feature", "properties": { "id": "08102", "ciudad": "Igualada", "provincia": "Barcelona", "c_autonoma": "Cataluña", "open_data": "<a href=\"https:\/\/seu-e.cat\/web\/igualada\/dades-obertes\" target=\"_blank\">Ajuntament de Igualada - Dades Obertes [Consorci Administració Oberta de Catalunya]<\/a>", "otros_od": null, "datourbano": null, "Notas": "Datos georreferenciados: NO" }, "geometry": { "type": "Point", "coordinates": [ 1.617590742234846, 41.578743111167668 ] } },
{ "type": "Feature", "properties": { "id": "08096", "ciudad": "Granollers", "provincia": "Barcelona", "c_autonoma": "Cataluña", "open_data": "<a href=\"https:\/\/opendata.granollers.cat\/ca\/\" target=\"_blank\">Portal de dades obertes de Granollers [Ajuntament de Granollers]<\/a>", "otros_od": null, "datourbano": "", "Notas": "Datos georreferenciados: SI" }, "geometry": { "type": "Point", "coordinates": [ 2.28725464737229, 41.608097942396661 ] } },
{ "type": "Feature", "properties": { "id": "08279", "ciudad": "Terrassa", "provincia": "Barcelona", "c_autonoma": "Cataluña", "open_data": "<a href=\"https:\/\/opendata.terrassa.cat\" target=\"_blank\">Govern Obert [Ajuntament de Terrassa]<\/a>", "otros_od": null, "datourbano": null, "Notas": "Datos georreferenciados: SI" }, "geometry": { "type": "Point", "coordinates": [ 2.010022631083407, 41.563097373132315 ] } },
{ "type": "Feature", "properties": { "id": "08076", "ciudad": "Esparreguera", "provincia": "Barcelona", "c_autonoma": "Cataluña", "open_data": "<a href=\"https:\/\/seu-e.cat\/ca\/web\/esparreguera\/dades-obertes\" target=\"_blank\">Ajuntament de Esparreguera - Dades Obertes [Consorci Administració Oberta de Catalunya]<\/a>", "otros_od": null, "datourbano": null, "Notas": "Datos georreferenciados: NO" }, "geometry": { "type": "Point", "coordinates": [ 1.870684910120861, 41.539011422437198 ] } },
{ "type": "Feature", "properties": { "id": "08187", "ciudad": "Sabadell", "provincia": "Barcelona", "c_autonoma": "Cataluña", "open_data": "<a href=\"http:\/\/opendata.sabadell.cat\" target=\"_blank\">DadesObertes SBD [Ajuntament de Sabadell]<\/a>", "otros_od": null, "datourbano": "", "Notas": "Datos georreferenciados: SI" }, "geometry": { "type": "Point", "coordinates": [ 2.108555564602084, 41.546335893401228 ] } },
{ "type": "Feature", "properties": { "id": "08238", "ciudad": "Sant Quirze del Vallès", "provincia": "Barcelona", "c_autonoma": "Cataluña", "open_data": "<a href=\"https:\/\/seu-e.cat\/web\/santquirzedelvalles\/dades-obertes\" target=\"_blank\">Ajuntament de Sant Quirze del Vallès - Dades Obertes [Consorci Administració Oberta de Catalunya]<\/a>", "otros_od": null, "datourbano": "", "Notas": "Datos georreferenciados: NO" }, "geometry": { "type": "Point", "coordinates": [ 2.080763314104371, 41.533248300015103 ] } },
{ "type": "Feature", "properties": { "id": "08015", "ciudad": "Badalona", "provincia": "Barcelona", "c_autonoma": "Cataluña", "open_data": "<a href=\"http:\/\/opendata.badalona.cat\" target=\"_blank\">Portal de dades obertes de Badalona [Ajuntament de Badalona]<\/a>", "otros_od": null, "datourbano": "", "Notas": "Datos georreferenciados: SI" }, "geometry": { "type": "Point", "coordinates": [ 2.247638121772739, 41.45012119677736 ] } },
{ "type": "Feature", "properties": { "id": "08184", "ciudad": "Rubí", "provincia": "Barcelona", "c_autonoma": "Cataluña", "open_data": "<a href=\"https:\/\/opendata.rubi.cat\/\" target=\"_blank\">Open Data Rubí [Ajuntament de Rubí]<\/a>", "otros_od": null, "datourbano": "", "Notas": "Datos georreferenciados: SI" }, "geometry": { "type": "Point", "coordinates": [ 2.03109289772885, 41.493671808867703 ] } },
{ "type": "Feature", "properties": { "id": "08205", "ciudad": "Sant Cugat del Vallès", "provincia": "Barcelona", "c_autonoma": "Cataluña", "open_data": "<a href=\"http:\/\/www.opendata.santcugat.cat\/santcugat\/ca\" target=\"_blank\">Open Data SantCugat [Ajuntament de Sant Cugat del Vallès]<\/a>", "otros_od": null, "datourbano": "", "Notas": "Datos georreferenciados: SI" }, "geometry": { "type": "Point", "coordinates": [ 2.085285283087454, 41.47047798503101 ] } },
{ "type": "Feature", "properties": { "id": "08077", "ciudad": "Esplugues de Llobregat", "provincia": "Barcelona", "c_autonoma": "Cataluña", "open_data": "<a href=\"https:\/\/seu-e.cat\/web\/EspluguesdeLlobregat\/dades-obertes\" target=\"_blank\">AAjuntament de Esplugues de Llobregat - Dades Obertes [Consorci Administració Oberta de Catalunya]<\/a>", "otros_od": null, "datourbano": "", "Notas": "Datos georreferenciados: NO" }, "geometry": { "type": "Point", "coordinates": [ 2.088507559047576, 41.377606683862815 ] } },
{ "type": "Feature", "properties": { "id": "08211", "ciudad": "Sant Feliu de Llobregat", "provincia": "Barcelona", "c_autonoma": "Cataluña", "open_data": "<a href=\"http:\/\/opendata.santfeliu.cat\/santfeliu\/\" target=\"_blank\">Portal de Dades Obertes [Ajuntament de Sant Feliu de Llobregat]<\/a>", "otros_od": null, "datourbano": "", "Notas": "Datos georreferenciados: SI" }, "geometry": { "type": "Point", "coordinates": [ 2.045076631914916, 41.38083215286909 ] } },
{ "type": "Feature", "properties": { "id": "08073", "ciudad": "Cornellà de Llobregat", "provincia": "Barcelona", "c_autonoma": "Cataluña", "open_data": "<a href=\"http:\/\/opendata.cornella.cat\/cornella\/ca\" target=\"_blank\">Portal de Dades Obertes [Ajuntament de Cornellà de Llobregat]<\/a>", "otros_od": null, "datourbano": "", "Notas": "Datos georreferenciados: SI" }, "geometry": { "type": "Point", "coordinates": [ 2.070192477522223, 41.355193023735296 ] } },
{ "type": "Feature", "properties": { "id": "08101", "ciudad": "L' Hospitalet de Llobregat", "provincia": "Barcelona", "c_autonoma": "Cataluña", "open_data": "<a href=\"https:\/\/dadesobertes.l-h.cat\/\" target=\"_blank\">Dades Obertes [Ajuntament de L' Hospitalet de Llobregat]<\/a>", "otros_od": null, "datourbano": "", "Notas": "Datos georreferenciados: SI" }, "geometry": { "type": "Point", "coordinates": [ 2.099647372353391, 41.359445717024606 ] } },
{ "type": "Feature", "properties": { "id": "08200", "ciudad": "Sant Boi de Llobregat", "provincia": "Barcelona", "c_autonoma": "Cataluña", "open_data": "<a href=\"http:\/\/observatori.santboi.cat\/category\/dades-obertes\/\" target=\"_blank\">Open Data Sant Boi [Ajuntament de Sant Boi de Llobregat]<\/a>", "otros_od": null, "datourbano": "", "Notas": "En construcción" }, "geometry": { "type": "Point", "coordinates": [ 2.043162713597403, 41.347538921087178 ] } },
{ "type": "Feature", "properties": { "id": "08169", "ciudad": "El Prat de Llobregat", "provincia": "Barcelona", "c_autonoma": "Cataluña", "open_data": "<a href=\"https:\/\/seu-e.cat\/web\/elpratdellobregat\/dades-obertes\" target=\"_blank\">Ajuntament de El Prat de Llobregat - Dades Obertes [Consorci Administració Oberta de Catalunya]<\/a>", "otros_od": null, "datourbano": "", "Notas": "Datos georreferenciados: NO" }, "geometry": { "type": "Point", "coordinates": [ 2.09305359641946, 41.33074169376097 ] } },
{ "type": "Feature", "properties": { "id": "08301", "ciudad": "Viladecans", "provincia": "Barcelona", "c_autonoma": "Cataluña", "open_data": "<a href=\"http:\/\/opendata.viladecans.cat\/viladecans\/ca\" target=\"_blank\">Portal de Dades Obertes [Ajuntament de Viladecans]<\/a>", "otros_od": null, "datourbano": "", "Notas": "No existen datos" }, "geometry": { "type": "Point", "coordinates": [ 2.020049357980253, 41.316019777395212 ] } },
{ "type": "Feature", "properties": { "id": "08089", "ciudad": "Gavà", "provincia": "Barcelona", "c_autonoma": "Cataluña", "open_data": "<a href=\"https:\/\/gavaobert.gavaciutat.cat\/\" target=\"_blank\">Gavà Obert [Ajuntament de Gavà]<\/a> ", "otros_od": null, "datourbano": "", "Notas": "Datos georreferenciados: SI" }, "geometry": { "type": "Point", "coordinates": [ 1.998899982930373, 41.303883734357314 ] } },
{ "type": "Feature", "properties": { "id": "08056", "ciudad": "Castelldefels", "provincia": "Barcelona", "c_autonoma": "Cataluña", "open_data": "<a href=\"https:\/\/seu-e.cat\/ca\/web\/castelldefels\/dades-obertes\" target=\"_blank\"AAjuntament de Castelldefels - Dades Obertes [Consorci Administració Oberta de Catalunya]<\/a>", "otros_od": null, "datourbano": "", "Notas": "Datos georreferenciados: NO" }, "geometry": { "type": "Point", "coordinates": [ 1.976722406289392, 41.280143149223704 ] } },
{ "type": "Feature", "properties": { "id": "43014", "ciudad": "Amposta", "provincia": "Tarragona", "c_autonoma": "Cataluña", "open_data": "<a href=\"https:\/\/seu-e.cat\/ca\/web\/amposta\/dades-obertes\" target=\"_blank\">Ajuntament de Amposta - Dades Obertes [Consorci Administració Oberta de Catalunya]<\/a>", "otros_od": null, "datourbano": "", "Notas": "Datos georreferenciados: NO" }, "geometry": { "type": "Point", "coordinates": [ 0.58102924351566, 40.713419259805704 ] } },
{ "type": "Feature", "properties": { "id": "46244", "ciudad": "Torrent", "provincia": "Valencia", "c_autonoma": "Comunitat Valenciana", "open_data": "<a href=\"http:\/\/datosabiertos.torrent.es\/\" target=\"_blank\">Portal Open Data [Ajuntament de Torrent]<\/a>", "otros_od": null, "datourbano": "", "Notas": "Datos georreferenciados: SI" }, "geometry": { "type": "Point", "coordinates": [ -0.465903330876339, 39.436753962885675 ] } },
{ "type": "Feature", "properties": { "id": "30024", "ciudad": "Lorca", "provincia": "Murcia", "c_autonoma": "Región de Murcia", "open_data": "<a href=\"http:\/\/datos.lorca.es\/\" target=\"_blank\">Datos Abiertos [Ayuntamiento de Lorca]<\/a>", "otros_od": null, "datourbano": "", "Notas": "Datos georreferenciados: SI" }, "geometry": { "type": "Point", "coordinates": [ -1.699795121738407, 37.676479119965492 ] } },
{ "type": "Feature", "properties": { "id": "23060", "ciudad": "Martos", "provincia": "Jaén", "c_autonoma": "Andalucía", "open_data": "<a href=\"https:\/\/martos.es\/index.php\/nuevas-tecnologias\/datos-abiertos2\" target=\"_blank\">Datos Abiertos [Ayuntamiento de Martos]<\/a>", "otros_od": null, "datourbano": "", "Notas": "Datos georreferenciados: NO" }, "geometry": { "type": "Point", "coordinates": [ -3.965797403220772, 37.722853775465076 ] } },
{ "type": "Feature", "properties": { "id": "14042", "ciudad": "Montilla", "provincia": "Córdoba", "c_autonoma": "Andalucía", "open_data": "<a href=\"http:\/\/www.montilla.es\/contenido\/datos-abiertos\" target=\"_blank\">Datos Abiertos [Ayuntamiento de Montilla]<\/a>", "otros_od": null, "datourbano": "", "Notas": "Datos georreferenciados: SI  (Diputación de Córdoba)" }, "geometry": { "type": "Point", "coordinates": [ -4.640059670752899, 37.586317100356872 ] } },
{ "type": "Feature", "properties": { "id": "14038", "ciudad": "Lucena", "provincia": "Córdoba", "c_autonoma": "Andalucía", "open_data": "<a href=\"http:\/\/www.aytolucena.es\/contenido\/datos-abiertos\" target=\"_blank\">Datos Abiertos [Ayuntamiento de Lucena]<\/a>", "otros_od": null, "datourbano": "", "Notas": "Datos georreferenciados: SI (Diputación de Córdoba)" }, "geometry": { "type": "Point", "coordinates": [ -4.485547266850458, 37.408823201469239 ] } },
{ "type": "Feature", "properties": { "id": "14055", "ciudad": "Priego de Córdoba", "provincia": "Córdoba", "c_autonoma": "Andalucía", "open_data": "<a href=\"http:\/\/www.priegodecordoba.es\/contenido\/datos-abiertos\" target=\"_blank\">Datos Abiertos [Ayuntamiento de Priego de Córdoba]<\/a>", "otros_od": null, "datourbano": "", "Notas": "Datos georreferenciados: SI  (Diputación de Córdoba)" }, "geometry": { "type": "Point", "coordinates": [ -4.194914167805177, 37.438850395713295 ] } },
{ "type": "Feature", "properties": { "id": "29007", "ciudad": "Alhaurín de la Torre", "provincia": "Málaga", "c_autonoma": "Andalucía", "open_data": "<a href=\"http:\/\/transparencia.alhaurindelatorre.es\/dataset\" target=\"_blank\">Portal de Transparencia [Ayuntamiento de Alhaurín de la Torre]<\/a>", "otros_od": null, "datourbano": "", "Notas": "Datos georreferenciados: SI" }, "geometry": { "type": "Point", "coordinates": [ -4.56500200188731, 36.661513121297091 ] } },
{ "type": "Feature", "properties": { "id": "29054", "ciudad": "Fuengirola", "provincia": "Málaga", "c_autonoma": "Andalucía", "open_data": "<a href=\"http:\/\/datosabiertos.fuengirola.es\/\" target=\"_blank\">Portal Datos Abiertos [Ayuntamiento de Fuengirola]<\/a>", "otros_od": null, "datourbano": "", "Notas": "Datos georreferenciados: SI" }, "geometry": { "type": "Point", "coordinates": [ -4.626807195556939, 36.537099331713826 ] } },
{ "type": "Feature", "properties": { "id": "29069", "ciudad": "Marbella", "provincia": "Málaga", "c_autonoma": "Andalucía", "open_data": "<a href=\"http:\/\/opendata.marbella.es\/\" target=\"_blank\">Portal Datos Abiertos [Ayuntamiento de Marbella]<\/a>", "otros_od": null, "datourbano": "", "Notas": "Actualmente no se puede acceder a este sitio web" }, "geometry": { "type": "Point", "coordinates": [ -4.885149920178764, 36.510346059072681 ] } },
{ "type": "Feature", "properties": { "id": "11008", "ciudad": "Los Barrios", "provincia": "Cádiz", "c_autonoma": "Andalucía", "open_data": "<a href=\"http:\/\/www.losbarrios.es\/el-consistorio\/ayuntamiento\/participacion-ciudadana\/datos-abiertos\/\" target=\"_blank\">Datos Abiertos [Ayuntamiento de Los Barrios]<\/a>", "otros_od": null, "datourbano": "", "Notas": "Datos georreferenciados: NO" }, "geometry": { "type": "Point", "coordinates": [ -5.492832229077081, 36.185588835710604 ] } },
{ "type": "Feature", "properties": { "id": "11027", "ciudad": "El Puerto de Santa María", "provincia": "Cádiz", "c_autonoma": "Andalucía", "open_data": "<a href=\"https:\/\/www.elpuertodesantamaria.es\/index.php?men_id=436&art_id=9262&PRY=\" target=\"_blank\">Datos Abiertos [Ayuntamiento de El Puerto de Santa María]<\/a>", "otros_od": null, "datourbano": "", "Notas": "Datos georreferenciados: NO" }, "geometry": { "type": "Point", "coordinates": [ -6.225383650496787, 36.600526170707369 ] } },
{ "type": "Feature", "properties": { "id": "28074", "ciudad": "Leganés", "provincia": "Madrid", "c_autonoma": "Comunidad de Madrid", "open_data": "<a href=\"http:\/\/www.leganes.org\/portal\/contenedor_ficha.jsp?seccion=s_fdes_d4_v1.jsp&codbusqueda=1916&language=es&codResi=1&codMenuPN=4&codMenu=1939&layout=contenedor_ficha.jsp\" target=\"_blank\">Catálogo de datos abiertos [Ayuntamiento de Leganés]<\/a>", "otros_od": "", "datourbano": "", "Notas": "Datos georreferenciados: NO" }, "geometry": { "type": "Point", "coordinates": [ -3.768396283040239, 40.326031025239558 ] } },
{ "type": "Feature", "properties": { "id": "28015", "ciudad": "Arroyomolinos", "provincia": "Madrid", "c_autonoma": "Comunidad de Madrid", "open_data": "<a href=\"http:\/\/www.arroyomolinos.es\/open-data\" target=\"_blank\">Open Data [Ayuntamiento de Arroyomolinos]<\/a>", "otros_od": "", "datourbano": "", "Notas": "Datos georreferenciados: NO" }, "geometry": { "type": "Point", "coordinates": [ -3.920087986634101, 40.267726613671748 ] } },
{ "type": "Feature", "properties": { "id": "28014", "ciudad": "Arganda del Rey", "provincia": "Madrid", "c_autonoma": "Comunidad de Madrid", "open_data": "<a href=\"http:\/\/archivo.ayto-arganda.es\/ElArchivo\/Fondos\/OpenData.aspx\" target=\"_blank\">Open Data [Ayuntamiento de Arganda del Rey]<\/a>", "otros_od": "", "datourbano": "", "Notas": "Datos georreferenciados: NO" }, "geometry": { "type": "Point", "coordinates": [ -3.43741602833415, 40.300798687304635 ] } },
{ "type": "Feature", "properties": { "id": "28006", "ciudad": "Alcobendas", "provincia": "Madrid", "c_autonoma": "Comunidad de Madrid", "open_data": "<a href=\"http:\/\/datos.alcobendas.org\/\" target=\"_blank\">Datos Abiertos [Ayuntamiento de Alcobendas]<\/a>", "otros_od": "", "datourbano": "", "Notas": "Datos georreferenciados: SI" }, "geometry": { "type": "Point", "coordinates": [ -3.641766800494982, 40.547522620941379 ] } },
{ "type": "Feature", "properties": { "id": "35024", "ciudad": "Teguise", "provincia": "Las Palmas", "c_autonoma": "Canarias", "open_data": "<a href=\"https:\/\/sede.teguise.es\/transparencia\" target=\"_blank\">Portal de transparencia [Ayuntamiento de Teguise]<\/a>", "otros_od": "", "datourbano": "", "Notas": "Datos georreferenciados: NO" }, "geometry": { "type": "Point", "coordinates": [ -13.561216399541184, 29.057273335157365 ] } },
{ "type": "Feature", "properties": { "id": "35019", "ciudad": "San Bartolomé de Tirajana\n", "provincia": "Las Palmas", "c_autonoma": "Canarias", "open_data": "<a href=\"https:\/\/eadmin.maspalomas.com\/transparencia\" target=\"_blank\">Portal de transparencia [Ayuntamiento de San Bartolomé de Tirajana]<\/a>", "otros_od": null, "datourbano": null, "Notas": "Datos georreferenciados: NO" }, "geometry": { "type": "Point", "coordinates": [ -15.585518291316825, 27.766566378057991 ] } },
{ "type": "Feature", "properties": { "id": "38023", "ciudad": "San Cristóbal de La Laguna", "provincia": "Santa Cruz de Tenerife", "c_autonoma": "Canarias", "open_data": "<a href=\"http:\/\/datos.aytolalaguna.es\/organization\/ayuntamiento-de-san-cristobal-de-la-laguna\" target=\"_blank\">Portal de Datos Abiertos [Ayuntamiento de San Cristóbal de La Laguna]<\/a>", "otros_od": "", "datourbano": "", "Notas": "Datos georreferenciados: NO" }, "geometry": { "type": "Point", "coordinates": [ -16.313986631534977, 28.4872735467974 ] } },
{ "type": "Feature", "properties": { "id": "38043", "ciudad": "Tacoronte", "provincia": "Santa Cruz de Tenerife", "c_autonoma": "Canarias", "open_data": "<a href=\"https:\/\/sede.tacoronte.es\/publico\/opendata\/catalogo\" target=\"_blank\">Portal de transparencia [Ayuntamiento de Tacoronte]<\/a>", "otros_od": "", "datourbano": "", "Notas": "Datos georreferenciados: NO" }, "geometry": { "type": "Point", "coordinates": [ -16.412716364780213, 28.480898177946994 ] } },
{ "type": "Feature", "properties": { "id": "38028", "ciudad": "Puerto de la Cruz", "provincia": "Santa Cruz de Tenerife", "c_autonoma": "Canarias", "open_data": " <a href=\"https:\/\/sedeelectronica.puertodelacruz.es\/publico\/opendata\/catalogo\" target=\"_blank\">Portal de transparencia [Ayuntamiento de Puerto de la Cruz]<\/a>", "otros_od": "", "datourbano": "", "Notas": "Datos georreferenciados: NO" }, "geometry": { "type": "Point", "coordinates": [ -16.548484835054133, 28.418012360339418 ] } },
{ "type": "Feature", "properties": { "id": "38019", "ciudad": "Guía de Isora", "provincia": "Santa Cruz de Tenerife", "c_autonoma": "Canarias", "open_data": "<a href=\"https:\/\/sede.guiadeisora.es\/publico\/openData\/catalogo\" target=\"_blank\">Portal de transparencia [Ayuntamiento de Guía de Isora]<\/a>", "otros_od": "", "datourbano": "", "Notas": "Datos georreferenciados: NO" }, "geometry": { "type": "Point", "coordinates": [ -16.778524231502331, 28.20929028604651 ] } },
{ "type": "Feature", "properties": { "id": "38006", "ciudad": "Arona", "provincia": "Santa Cruz de Tenerife", "c_autonoma": "Canarias", "open_data": "<a href=\"http:\/\/datos.arona.org\/\" target=\"_blank\">Datos Abiertos [Ayuntamiento de Arona]<\/a>", "otros_od": "", "datourbano": "", "Notas": "Datos georreferenciados: SI" }, "geometry": { "type": "Point", "coordinates": [ -16.680670708392185, 28.099967449621509 ] } },
{ "type": "Feature", "properties": { "id": "38024", "ciudad": "Llanos de Aridane, Los", "provincia": "Santa Cruz de Tenerife", "c_autonoma": "Canarias", "open_data": "<a href=\"https:\/\/eadmin.aridane.org\/publico\/opendata\/catalogo\" target=\"_blank\">Portal de transparencia [Ayuntamiento de Los Llanos de Aridane]<\/a>", "otros_od": "", "datourbano": "", "Notas": "Datos georreferenciados: NO" }, "geometry": { "type": "Point", "coordinates": [ -17.913180669554503, 28.65865816128683 ] } },
{ "type": "Feature", "properties": { "id": "33044", "ciudad": "Oviedo", "provincia": "Asturias", "c_autonoma": null, "open_data": "<a href=\"http:\/\/www.oviedo.es\/opendata\" target=\"_blank\">Open Data  [Ayuntamiento de Oviedo]<\/a>", "otros_od": "", "datourbano": "", "Notas": "Datos georreferenciados: NO" }, "geometry": { "type": "Point", "coordinates": [ -5.844880327220198, 43.360510735488653 ] } },
{ "type": "Feature", "properties": { "id": "26089", "ciudad": "Logroño", "provincia": "La Rioja", "c_autonoma": "La Rioja", "open_data": "<a href=\"http:\/\/www.xn--logroo-0wa.es\/wps\/portal\/web\/inicio\/especiales\/fiware\/!ut\/p\/c4\/04_SB8K8xLLM9MSSzPy8xBz9CP0os_hAc9NQf293QwMDFyB29PT2sDAyMzQ28DbTL8h2VAQA_QzA3Q!!\/?WCM_GLOBAL_CONTEXT=\/web_es\/logrono\/especiales\/fiware\" target=\"_blank\">Fiware Open Data Logroño [Ayuntamiento de Logroño]<\/a>", "otros_od": "", "datourbano": "", "Notas": "Servicio temporalmente no disponible" }, "geometry": { "type": "Point", "coordinates": [ -2.439402388043292, 42.466512112728452 ] } },
{ "type": "Feature", "properties": { "id": "20067", "ciudad": "Errenteria", "provincia": "Guipuzkoa", "c_autonoma": "País Vasco", "open_data": "<a href=\"http:\/\/www.gipuzkoairekia.eus\/es\/web\/errenteria\/datu-irekien-katalogoa\" target=\"_blank\">  Datos Abiertos - Ayuntamiento de Errenteria | Errentiako Udala [Gipuzkoa Irekia]<\/a>", "otros_od": "", "datourbano": "", "Notas": "Datos georreferenciados: NO" }, "geometry": { "type": "Point", "coordinates": [ -1.898807275768352, 43.312667598500092 ] } }
]
}
