{
"type": "FeatureCollection",
"crs": { "type": "name", "properties": { "name": "urn:ogc:def:crs:OGC:1.3:CRS84" } },
"features": [
{ "type": "Feature", "properties": { "id": "20069", "ciudad": "Donostia\/San Sebastián", "provincia": "Gipuzkoa", "c_autonoma": "País Vasco", "open_data": "<a href=\"https:\/\/www.donostia.eus\/info\/udalinfo\/servicios_opendata.nsf\/vowebContenidosId\/NT000008FE?OpenDocument&idioma=cas&id=D429174410546&doc=D\" target=\"_blank\">Datos abiertos (Open data) del Ayuntamiento de Donostia\/San Sebastián<\/a>", "datourbano": "<a href=\"https:\/\/datourbano.github.io\/donostia_san_sebastian\" target=\"_blank\">Dato Urbano - Donostia\/San Sebastián<\/a>" }, "geometry": { "type": "Point", "coordinates": [ -1.985729, 43.321513 ] } },
{ "type": "Feature", "properties": { "id": "43148", "ciudad": "Tarragona", "provincia": "Tarragona", "c_autonoma": "Cataluña", "open_data": "<a href=\"http:\/\/opendata.tarragona.cat\/tarragona\/es\/\" target=\"_blank\">Dades Obertes de Tarragona<\/a>", "datourbano": null }, "geometry": { "type": "Point", "coordinates": [ 1.254292571924858, 41.117385661093508 ] } },
{ "type": "Feature", "properties": { "id": "17079", "ciudad": "Girona", "provincia": "Girona", "c_autonoma": "Cataluña", "open_data": "<a href=\"http:\/\/www.girona.cat\/sgdap\/cat\/dades_obertes.php\" target=\"_blank\">Dades Obertes (Ajuntament de Girona)<\/a>", "datourbano": null }, "geometry": { "type": "Point", "coordinates": [ 2.824781657066532, 41.983081548277468 ] } },
{ "type": "Feature", "properties": { "id": "08019", "ciudad": "Barcelona", "provincia": "Barcelona", "c_autonoma": "Cataluña", "open_data": "<a href=\"http:\/\/opendata-ajuntament.barcelona.cat\/\" target=\"_blank\">Open Data BCN<\/a>", "datourbano": "<a href=\"https:\/\/datourbano.github.io\/barcelona\" target=\"_blank\">Dato Urbano - Barcelona<\/a>" }, "geometry": { "type": "Point", "coordinates": [ 2.177188086170022, 41.382493852222829 ] } },
{ "type": "Feature", "properties": { "id": "25120", "ciudad": "Lleida", "provincia": "Lleida", "c_autonoma": "Cataluña", "open_data": "<a href=\"http:\/\/opendata-ajuntament.barcelona.cat\/\" target=\"_blank\">Dades Obertes de Lleida<\/a>", "datourbano": null }, "geometry": { "type": "Point", "coordinates": [ 0.626726208629724, 41.614705561915159 ] } },
{ "type": "Feature", "properties": { "id": "50297", "ciudad": "Zaragoza", "provincia": "Zaragoza", "c_autonoma": "Aragón", "open_data": "<a href=\"http:\/\/www.zaragoza.es\/ciudad\/risp\/\" target=\"_blank\">Datos abiertos de Zaragoza<\/a>", "datourbano": null }, "geometry": { "type": "Point", "coordinates": [ -0.877481943566129, 41.656009415308993 ] } },
{ "type": "Feature", "properties": { "id": "16078", "ciudad": "Cuenca", "provincia": "Cuenca", "c_autonoma": "Castilla-La Mancha", "open_data": "<a href=\"http:\/\/gobiernoabierto.cuenca.es\/default.aspx?tabid=25545\" target=\"_blank\">Gobierno Abierto (Ayuntamiento de Cuenca)<\/a>", "datourbano": null }, "geometry": { "type": "Point", "coordinates": [ -2.130184645388876, 40.077903074743304 ] } },
{ "type": "Feature", "properties": { "id": "02003", "ciudad": "Albacete", "provincia": "Albacete", "c_autonoma": "Castilla - La Mancha", "open_data": "<a href=\"http:\/\/www.albacete.es\/es\/webs-municipales\/datos-abiertos\" target=\"_blank\">Datos Abiertos (Ayuntamiento de Albacete)<\/a>", "datourbano": null }, "geometry": { "type": "Point", "coordinates": [ -1.855800617482841, 38.996185174066348 ] } },
{ "type": "Feature", "properties": { "id": "46250", "ciudad": "Valencia", "provincia": "Valencia", "c_autonoma": "Comunitat Valenciana", "open_data": "<a href=\"http:\/\/gobiernoabierto.valencia.es\/va\/\" target=\"_blank\">Portal de Transparència i Dades Obertes (Ajuntament de València)<\/a>", "datourbano": null }, "geometry": { "type": "Point", "coordinates": [ -0.3770022278314, 39.469805904859925 ] } },
{ "type": "Feature", "properties": { "id": "29067", "ciudad": "Málaga", "provincia": "Málaga", "c_autonoma": "Andalucía", "open_data": "<a href=\"http:\/\/datosabiertos.malaga.eu\/\" target=\"_blank\">Portal Datos Abiertos (Ayuntamiento de Málaga)<\/a>", "datourbano": null }, "geometry": { "type": "Point", "coordinates": [ -4.414952224578534, 36.72018475464025 ] } },
{ "type": "Feature", "properties": { "id": "41091", "ciudad": "Sevilla", "provincia": "Sevilla", "c_autonoma": "Andalucía", "open_data": "<a href=\"http:\/\/datosabiertos.sevilla.org\/\" target=\"_blank\">Portal de Datos Abiertos (Ayuntamiento de Sevilla)<\/a>", "datourbano": "<a href=\"https:\/\/datourbano.github.io\/sevilla\" target=\"_blank\">Dato Urbano - Sevilla<\/a>" }, "geometry": { "type": "Point", "coordinates": [ -5.994609387808802, 37.388627394388777 ] } },
{ "type": "Feature", "properties": { "id": "10037", "ciudad": "Cáceres", "provincia": "Cáceres", "c_autonoma": "Extremadura", "open_data": "<a href=\"http:\/\/opendata.caceres.es\/\" target=\"_blank\">Opendata Cáceres (Servicio de datos abiertos del Ayuntamiento de Cáceres)<\/a>", "datourbano": null }, "geometry": { "type": "Point", "coordinates": [ -6.371861371273713, 39.474514444933071 ] } },
{ "type": "Feature", "properties": { "id": "28079", "ciudad": "Madrid", "provincia": "Madrid", "c_autonoma": "Comunidad de Madrid", "open_data": "<a href=\"http:\/\/datos.madrid.es\/portal\/site\/egob\/\" target=\"_blank\">Portal de datos abiertos del Ayuntamiento de Madrid<\/a>", "datourbano": "<a href=\"https:\/\/datourbano.github.io\/madrid\" target=\"_blank\">Dato Urbano - Madrid<\/a>" }, "geometry": { "type": "Point", "coordinates": [ -3.692152557743561, 40.418971981900157 ] } },
{ "type": "Feature", "properties": { "id": "47186", "ciudad": "Valladolid", "provincia": "Valladolid", "c_autonoma": "Castilla y León", "open_data": "<a href=\"http:\/\/www.valladolid.es\/es\/temas\/hacemos\/open-data-datos-abiertos\" target=\"_blank\">Open Data - Datos Abiertos (Ayuntamiento de Valladolid)<\/a>", "datourbano": null }, "geometry": { "type": "Point", "coordinates": [ -4.728647638592801, 41.652351060031044 ] } },
{ "type": "Feature", "properties": { "id": "15030", "ciudad": "A Coruña", "provincia": "A Coruña", "c_autonoma": "Galicia", "open_data": "<a href=\"https:\/\/smart.coruna.es\/OpenData\/COR\/index.html\" target=\"_blank\">Coruña Smart City Open Data (Ayuntamiento de A Coruña\/Concello da Coruña)<\/a>", "datourbano": null }, "geometry": { "type": "Point", "coordinates": [ -8.395845854477866, 43.371328082312544 ] } },
{ "type": "Feature", "properties": { "id": "33044", "ciudad": "Oviedo", "provincia": "Asturias", "c_autonoma": "Principado de Asturias", "open_data": "<a href=\"http:\/\/www.ovdatos.es\/\" target=\"_blank\">OVDatos (Ayuntamiento de Oviedo)<\/a>", "datourbano": null }, "geometry": { "type": "Point", "coordinates": [ -5.844764398621623, 43.360493976433752 ] } },
{ "type": "Feature", "properties": { "id": "39075", "ciudad": "Santander", "provincia": "Cantabria", "c_autonoma": "Cantabria", "open_data": "<a href=\"http:\/\/datos.santander.es\/\" target=\"_blank\">Santander datos abiertos<\/a>", "datourbano": null }, "geometry": { "type": "Point", "coordinates": [ -3.809975257992598, 43.46217846581235 ] } },
{ "type": "Feature", "properties": { "id": "48020", "ciudad": "Bilbao", "provincia": "Bizkaia", "c_autonoma": "País Vasco", "open_data": "<a href=\"https:\/\/www.bilbao.eus\/opendata\/es\/inicio\" target=\"_blank\">Bilbao OPEN DATA<\/a>", "datourbano": null }, "geometry": { "type": "Point", "coordinates": [ -2.923505340665835, 43.264119461187455 ] } },
{ "type": "Feature", "properties": { "id": "01059", "ciudad": "Vitoria-Gasteiz", "provincia": "Araba-Álava", "c_autonoma": "País Vasco", "open_data": "<a href=\"http:\/\/www.vitoria-gasteiz.org\/j34-01w\/catalogo\/portada?idioma=es\" target=\"_blank\">Open data Vitoria-Gasteiz<\/a>", "datourbano": null }, "geometry": { "type": "Point", "coordinates": [ -2.672370750015053, 42.84678415453692 ] } },
{ "type": "Feature", "properties": { "id": "31201", "ciudad": "Pamplona\/Iruña", "provincia": "Navarra", "c_autonoma": "Comunidad Foral de Navarra", "open_data": "<a href=\"http:\/\/www.pamplona.es\/verpagina.asp?idpag=1519\" target=\"_blank\">Portal de Open Data (Ayuntamiento de Pamplona\/Iruñeko Udala)<\/a>", "datourbano": null }, "geometry": { "type": "Point", "coordinates": [ -1.644182837570979, 42.81843735743886 ] } },
{ "type": "Feature", "properties": { "id": "26089", "ciudad": "Logroño", "provincia": "La Rioja", "c_autonoma": "La Rioja", "open_data": "<a href=\"http:\/\/www.xn--logroo-0wa.es\/wps\/portal\/web\/inicio\/especiales\/fiware\/!ut\/p\/c4\/04_SB8K8xLLM9MSSzPy8xBz9CP0os_hAc9NQf293QwMDFyB29PT2sDAyMzQ28DbTL8h2VAQA_QzA3Q!!\/?WCM_GLOBAL_CONTEXT=\/web_es\/logrono\/especiales\/fiware\" target=\"_blank\">Fiware OpenData Logroño (Ayuntamiento de Logroño)<\/a>", "datourbano": "<a href=\"https:\/\/datourbano.github.io\/logrono\" target=\"_blank\">Dato Urbano - Logroño<\/a>" }, "geometry": { "type": "Point", "coordinates": [ -2.439474674005743, 42.466543423166257 ] } },
{ "type": "Feature", "properties": { "id": "38038", "ciudad": "Santa Cruz de Tenerife", "provincia": "Tenerife", "c_autonoma": "Canarias", "open_data": "<a href=\"http:\/\/www.santacruzdetenerife.es\/opendata\/\" target=\"_blank\">Portal de datos abiertos (Ayuntamiento de Santa Cruz de Tenerife)<\/a>", "datourbano": null }, "geometry": { "type": "Point", "coordinates": [ -16.254669024619609, 28.469830639670739 ] } },
{ "type": "Feature", "properties": { "id": "35016", "ciudad": "Las Palmas de Gran Canaria", "provincia": "Gran Canaria", "c_autonoma": "Canarias", "open_data": "<a href=\"http:\/\/datosabiertos.laspalmasgc.es\/\" target=\"_blank\">Portal Open Data (Ayuntamiento de Las Palmas de Gran Canaria)<\/a>", "datourbano": null }, "geometry": { "type": "Point", "coordinates": [ -15.428539231195112, 28.12503146609528 ] } }
]
}
